$GPRMC,025620.000,A,3934.2918,N,10448.3012,W,31.77,340.70,080820,,,A*49
$GPRMC,025621.000,A,3934.3005,N,10448.3051,W,31.57,341.32,080820,,,A*4E
$GPRMC,025622.000,A,3934.3078,N,10448.3095,W,32.02,342.52,080820,,,A*49
$GPRMC,025623.000,A,3934.3157,N,10448.3135,W,32.18,341.29,080820,,,A*4B
$GPRMC,025624.000,A,3934.3245,N,10448.3177,W,32.41,340.67,080820,,,A*4D
$GPRMC,025625.000,A,3934.3327,N,10448.3215,W,32.49,340.47,080820,,,A*44
$GPRMC,025626.300,V,,,,,0.00,0.00,080820,,,N*49
$GPRMC,025627.284,A,3934.3513,N,10448.3284,W,33.34,343.14,080820,,,A*4F
$GPRMC,025628.284,A,3934.3581,N,10448.3387,W,33.20,340.42,080820,,,A*4C
$GPRMC,025628.284,A,3934.3581,N,10448.3387,W,33.20,340.42,080820,,,A*4C
$GPRMC,025630.000,A,3934.3750,N,10448.3443,W,34.65,342.53,080820,,,A*4E
$GPRMC,025631.000,A,3934.3851,N,10448.3470,W,35.31,340.82,080820,,,A*4F
$GPRMC,025632.000,A,3934.3946,N,10448.3512,W,35.20,339.12,080820,,,A*49
$GPRMC,025633.000,A,3934.4031,N,10448.3557,W,35.37,340.78,080820,,,A*43
$GPRMC,025634.000,A,3934.4123,N,10448.3600,W,35.62,341.40,080820,,,A*4D
$GPRMC,025635.000,A,3934.4214,N,10448.3635,W,36.06,342.90,080820,,,A*42
$GPRMC,025636.000,A,3934.4303,N,10448.3675,W,36.03,342.95,080820,,,A*42
$GPRMC,025637.000,A,3934.4393,N,10448.3715,W,35.61,343.34,080820,,,A*40
$GPRMC,025638.000,A,3934.4487,N,10448.3753,W,35.23,343.67,080820,,,A*4F
$GPRMC,025639.000,A,3934.4577,N,10448.3778,W,34.68,343.51,080820,,,A*42
$GPRMC,025640.000,A,3934.4678,N,10448.3815,W,35.04,344.37,080820,,,A*48
$GPRMC,025641.000,A,3934.4769,N,10448.3846,W,34.67,343.78,080820,,,A*46
$GPRMC,025642.000,A,3934.4860,N,10448.3879,W,33.86,342.60,080820,,,A*4F
$GPRMC,025643.000,A,3934.4952,N,10448.3913,W,33.79,343.34,080820,,,A*43
$GPRMC,025644.000,A,3934.5046,N,10448.3945,W,33.00,342.28,080820,,,A*48
$GPRMC,025645.000,A,3934.5129,N,10448.3985,W,32.87,343.21,080820,,,A*4B
$GPRMC,025646.000,A,3934.5217,N,10448.4010,W,30.16,342.88,080820,,,A*4C
$GPRMC,025647.000,A,3934.5295,N,10448.4039,W,26.82,343.29,080820,,,A*4C
$GPRMC,025648.000,A,3934.5351,N,10448.4079,W,22.68,342.52,080820,,,A*43
$GPRMC,025649.000,A,3934.5391,N,10448.4096,W,19.01,343.16,080820,,,A*49
$GPRMC,025650.000,A,3934.5437,N,10448.4106,W,16.25,343.70,080820,,,A*4B
$GPRMC,025651.000,A,3934.5476,N,10448.4113,W,10.71,346.94,080820,,,A*43
$GPRMC,025652.000,A,3934.5508,N,10448.4123,W,7.74,343.96,080820,,,A*7F
$GPRMC,025653.000,A,3934.5517,N,10448.4130,W,5.96,345.59,080820,,,A*79
$GPRMC,025654.000,A,3934.5531,N,10448.4141,W,3.89,341.97,080820,,,A*72
$GPRMC,025655.000,A,3934.5535,N,10448.4136,W,0.12,341.97,080820,,,A*76
$GPRMC,025656.000,A,3934.5531,N,10448.4133,W,0.06,341.97,080820,,,A*71
$GPRMC,025657.000,A,3934.5528,N,10448.4147,W,0.01,341.97,080820,,,A*7C
$GPRMC,025658.000,A,3934.5537,N,10448.4143,W,0.05,341.97,080820,,,A*7D
$GPRMC,025659.000,A,3934.5536,N,10448.4143,W,0.03,341.97,080820,,,A*7B
$GPRMC,025700.000,A,3934.5536,N,10448.4142,W,0.02,341.97,080820,,,A*76
$GPRMC,025701.000,A,3934.5536,N,10448.4141,W,0.02,341.97,080820,,,A*74
$GPRMC,025702.000,A,3934.5536,N,10448.4140,W,0.02,341.97,080820,,,A*76
$GPRMC,025703.000,A,3934.5536,N,10448.4139,W,0.02,341.97,080820,,,A*79
$GPRMC,025704.000,A,3934.5536,N,10448.4139,W,0.01,341.97,080820,,,A*7D
$GPRMC,025705.000,A,3934.5535,N,10448.4139,W,0.01,341.97,080820,,,A*7F
$GPRMC,025706.000,A,3934.5535,N,10448.4139,W,0.01,341.97,080820,,,A*7C
$GPRMC,025707.000,A,3934.5536,N,10448.4139,W,0.01,341.97,080820,,,A*7E
$GPRMC,025708.000,A,3934.5536,N,10448.4139,W,0.01,341.97,080820,,,A*71
$GPRMC,025709.000,A,3934.5536,N,10448.4140,W,0.01,341.97,080820,,,A*7E
$GPRMC,025710.000,A,3934.5536,N,10448.4140,W,0.01,341.97,080820,,,A*76
$GPRMC,025711.000,A,3934.5537,N,10448.4140,W,0.00,341.97,080820,,,A*77
$GPRMC,025712.000,A,3934.5537,N,10448.4140,W,0.00,341.97,080820,,,A*74
$GPRMC,025713.000,A,3934.5537,N,10448.4140,W,0.01,341.97,080820,,,A*74
$GPRMC,025714.000,A,3934.5537,N,10448.4140,W,0.01,341.97,080820,,,A*73
$GPRMC,025715.000,A,3934.5537,N,10448.4140,W,0.01,341.97,080820,,,A*72
$GPRMC,025716.000,A,3934.5537,N,10448.4140,W,0.02,341.97,080820,,,A*72
$GPRMC,025717.000,A,3934.5538,N,10448.4140,W,0.02,341.97,080820,,,A*7C
$GPRMC,025718.000,A,3934.5538,N,10448.4141,W,0.01,341.97,080820,,,A*71
$GPRMC,025719.000,A,3934.5539,N,10448.4141,W,0.25,341.97,080820,,,A*77
$GPRMC,025720.000,A,3934.5539,N,10448.4140,W,0.22,341.97,080820,,,A*7B
$GPRMC,025721.000,A,3934.5540,N,10448.4140,W,0.24,341.97,080820,,,A*72
$GPRMC,025722.000,A,3934.5540,N,10448.4140,W,0.25,341.97,080820,,,A*70
$GPRMC,025723.000,A,3934.5541,N,10448.4140,W,0.31,341.97,080820,,,A*75
$GPRMC,025724.000,A,3934.5542,N,10448.4140,W,0.76,341.97,080820,,,A*72
$GPRMC,025725.000,A,3934.5544,N,10448.4141,W,1.93,341.97,080820,,,A*7E
$GPRMC,025726.000,A,3934.5550,N,10448.4144,W,4.17,341.29,080820,,,A*71
$GPRMC,025727.000,A,3934.5568,N,10448.4152,W,8.44,340.77,080820,,,A*7C
$GPRMC,025728.000,A,3934.5598,N,10448.4162,W,11.38,345.67,080820,,,A*48
$GPRMC,025729.000,A,3934.5639,N,10448.4177,W,14.49,343.85,080820,,,A*4C
$GPRMC,025730.000,A,3934.5694,N,10448.4197,W,17.59,344.22,080820,,,A*45
$GPRMC,025731.000,A,3934.5753,N,10448.4220,W,20.58,343.53,080820,,,A*45
$GPRMC,025732.000,A,3934.5814,N,10448.4244,W,22.47,343.86,080820,,,A*4C
$GPRMC,025733.000,A,3934.5878,N,10448.4269,W,24.13,343.43,080820,,,A*46
$GPRMC,025735.000,A,3934.6020,N,10448.4326,W,27.73,343.05,080820,,,A*4B
$GPRMC,025735.000,A,3934.6020,N,10448.4326,W,27.73,343.05,080820,,,A*4B
$GPRMC,025736.000,A,3934.6099,N,10448.4357,W,29.70,343.19,080820,,,A*4C
$GPRMC,025737.000,A,3934.6182,N,10448.4389,W,31.76,343.26,080820,,,A*46
$GPRMC,025739.000,A,3934.6361,N,10448.4458,W,33.84,342.79,080820,,,A*48
$GPRMC,025739.000,A,3934.6361,N,10448.4458,W,33.84,342.79,080820,,,A*48
$GPRMC,025741.000,A,3934.6547,N,10448.4533,W,35.05,342.80,080820,,,A*40
$GPRMC,025741.000,A,3934.6547,N,10448.4533,W,35.05,342.80,080820,,,A*40
$GPRMC,025742.000,A,3934.6642,N,10448.4571,W,35.53,342.16,080820,,,A*4F
$GPRMC,025744.000,A,3934.6835,N,10448.4650,W,36.48,341.45,080820,,,A*4B
$GPRMC,025745.000,A,3934.6934,N,10448.4692,W,37.01,341.72,080820,,,A*4C
$GPRMC,025745.000,A,3934.6934,N,10448.4692,W,37.01,341.72,080820,,,A*4C
$GPRMC,025746.000,A,3934.7033,N,10448.4732,W,37.47,343.07,080820,,,A*49
$GPRMC,025748.000,A,3934.7232,N,10448.4809,W,36.49,343.31,080820,,,A*49
$GPRMC,025749.000,A,3934.7330,N,10448.4848,W,36.07,342.42,080820,,,A*41
$GPRMC,025749.000,A,3934.7330,N,10448.4848,W,36.07,342.42,080820,,,A*41
$GPRMC,025751.000,A,3934.7518,N,10448.4933,W,35.70,338.38,080820,,,A*4A
$GPRMC,025752.000,A,3934.7610,N,10448.4984,W,36.38,335.09,080820,,,A*4E
$GPRMC,025753.000,A,3934.7701,N,10448.5041,W,36.91,332.05,080820,,,A*47
$GPRMC,025754.000,A,3934.7791,N,10448.5107,W,37.30,328.79,080820,,,A*40
$GPRMC,025755.000,A,3934.7878,N,10448.5179,W,37.71,326.67,080820,,,A*44
$GPRMC,025756.000,A,3934.7964,N,10448.5257,W,37.77,323.84,080820,,,A*4A
$GPRMC,025757.000,A,3934.8047,N,10448.5342,W,37.81,320.24,080820,,,A*49
$GPRMC,025758.000,A,3934.8127,N,10448.5432,W,38.06,317.90,080820,,,A*4A
$GPRMC,025759.000,A,3934.8203,N,10448.5528,W,38.10,314.73,080820,,,A*4D
$GPRMC,025800.000,A,3934.8276,N,10448.5629,W,38.40,311.94,080820,,,A*47
$GPRMC,025801.000,A,3934.8345,N,10448.5736,W,38.80,308.53,080820,,,A*47
$GPRMC,025802.000,A,3934.8410,N,10448.5847,W,38.58,306.30,080820,,,A*44
$GPRMC,025803.000,A,3934.8471,N,10448.5959,W,38.71,304.67,080820,,,A*47
$GPRMC,025804.000,A,3934.8531,N,10448.6072,W,37.93,304.81,080820,,,A*4D
$GPRMC,025805.000,A,3934.8591,N,10448.6184,W,37.67,304.33,080820,,,A*4C
$GPRMC,025806.000,A,3934.8649,N,10448.6295,W,37.82,304.30,080820,,,A*42
$GPRMC,025807.000,A,3934.8705,N,10448.6402,W,37.49,304.38,080820,,,A*4D
$GPRMC,025808.000,A,3934.8759,N,10448.6507,W,34.66,304.43,080820,,,A*4D
$GPRMC,025809.000,A,3934.8814,N,10448.6610,W,34.92,305.04,080820,,,A*46
$GPRMC,025810.000,A,3934.8870,N,10448.6713,W,34.97,305.12,080820,,,A*4C
$GPRMC,025811.000,A,3934.8926,N,10448.6819,W,36.30,304.96,080820,,,A*48
$GPRMC,025812.000,A,3934.8982,N,10448.6927,W,36.65,303.95,080820,,,A*4D
$GPRMC,025813.000,A,3934.9039,N,10448.7037,W,37.34,303.52,080820,,,A*43
$GPRMC,025814.000,A,3934.9096,N,10448.7151,W,38.24,303.94,080820,,,A*44
$GPRMC,025815.000,A,3934.9155,N,10448.7266,W,38.82,304.01,080820,,,A*4B
$GPRMC,025816.000,A,3934.9216,N,10448.7382,W,39.11,304.11,080820,,,A*4D
$GPRMC,025817.000,A,3934.9277,N,10448.7498,W,39.45,304.40,080820,,,A*42
$GPRMC,025818.000,A,3934.9338,N,10448.7616,W,39.39,304.24,080820,,,A*4A
$GPRMC,025819.000,A,3934.9399,N,10448.7732,W,39.20,305.05,080820,,,A*4D
$GPRMC,025820.000,A,3934.9462,N,10448.7845,W,38.79,306.68,080820,,,A*4E
$GPRMC,025821.000,A,3934.9530,N,10448.7955,W,38.83,309.92,080820,,,A*46
$GPRMC,025822.000,A,3934.9602,N,10448.8060,W,38.85,312.90,080820,,,A*49
$GPRMC,025823.000,A,3934.9677,N,10448.8160,W,38.87,315.64,080820,,,A*45
$GPRMC,025824.000,A,3934.9757,N,10448.8256,W,38.82,318.47,080820,,,A*4E
$GPRMC,025825.000,A,3934.9839,N,10448.8346,W,38.51,320.79,080820,,,A*40
$GPRMC,025826.000,A,3934.9923,N,10448.8432,W,38.70,322.56,080820,,,A*41
$GPRMC,025827.000,A,3935.0010,N,10448.8513,W,38.69,325.40,080820,,,A*4B
$GPRMC,025828.000,A,3935.0100,N,10448.8589,W,38.08,327.74,080820,,,A*45
$GPRMC,025829.000,A,3935.0192,N,10448.8657,W,37.61,331.22,080820,,,A*4B
$GPRMC,025830.000,A,3935.0285,N,10448.8718,W,37.53,334.20,080820,,,A*4A
$GPRMC,025831.000,A,3935.0380,N,10448.8774,W,37.55,335.76,080820,,,A*41
$GPRMC,025832.000,A,3935.0478,N,10448.8829,W,37.38,336.20,080820,,,A*4E
$GPRMC,025833.000,A,3935.0575,N,10448.8884,W,37.32,335.94,080820,,,A*42
$GPRMC,025834.000,A,3935.0673,N,10448.8940,W,37.38,335.63,080820,,,A*4B
$GPRMC,025835.000,A,3935.0772,N,10448.8997,W,37.47,336.07,080820,,,A*49
$GPRMC,025836.000,A,3935.0872,N,10448.9052,W,37.56,336.55,080820,,,A*43
$GPRMC,025837.000,A,3935.0973,N,10448.9108,W,37.64,336.15,080820,,,A*49
$GPRMC,025838.000,A,3935.1071,N,10448.9164,W,37.75,336.39,080820,,,A*48
$GPRMC,025839.000,A,3935.1171,N,10448.9219,W,37.85,336.17,080820,,,A*42
$GPRMC,025840.000,A,3935.1272,N,10448.9275,W,39.34,336.18,080820,,,A*4D
$GPRMC,025841.000,A,3935.1374,N,10448.9331,W,40.02,336.49,080820,,,A*45
$GPRMC,025842.000,A,3935.1477,N,10448.9389,W,40.07,335.84,080820,,,A*46
$GPRMC,025843.000,A,3935.1579,N,10448.9446,W,40.01,336.35,080820,,,A*43
$GPRMC,025844.000,A,3935.1681,N,10448.9503,W,39.96,336.45,080820,,,A*47
$GPRMC,025845.000,A,3935.1784,N,10448.9559,W,40.42,337.13,080820,,,A*48
$GPRMC,025846.000,A,3935.1887,N,10448.9616,W,40.64,336.56,080820,,,A*4B
$GPRMC,025847.000,A,3935.1992,N,10448.9674,W,41.26,336.54,080820,,,A*4E
$GPRMC,025848.000,A,3935.2097,N,10448.9734,W,41.54,336.00,080820,,,A*4F
$GPRMC,025849.000,A,3935.2203,N,10448.9795,W,41.76,335.56,080820,,,A*4A
$GPRMC,025850.000,A,3935.2310,N,10448.9855,W,41.82,335.81,080820,,,A*43
$GPRMC,025851.000,A,3935.2417,N,10448.9916,W,41.61,336.14,080820,,,A*46
$GPRMC,025852.000,A,3935.2523,N,10448.9976,W,41.43,336.48,080820,,,A*4C
$GPRMC,025853.000,A,3935.2628,N,10449.0035,W,41.61,336.67,080820,,,A*4E
$GPRMC,025854.000,A,3935.2733,N,10449.0093,W,41.50,337.49,080820,,,A*41
$GPRMC,025855.000,A,3935.2837,N,10449.0150,W,40.36,336.72,080820,,,A*4D
$GPRMC,025856.000,A,3935.2940,N,10449.0208,W,40.37,336.00,080820,,,A*45
$GPRMC,025857.000,A,3935.3043,N,10449.0268,W,40.47,335.83,080820,,,A*46
$GPRMC,025858.000,A,3935.3147,N,10449.0328,W,40.34,336.07,080820,,,A*42
$GPRMC,025859.000,A,3935.3252,N,10449.0390,W,41.50,335.59,080820,,,A*4C
$GPRMC,025900.000,A,3935.3358,N,10449.0452,W,41.79,335.75,080820,,,A*46
$GPRMC,025901.000,A,3935.3464,N,10449.0514,W,41.83,335.81,080820,,,A*42
$GPRMC,025902.000,A,3935.3570,N,10449.0576,W,41.82,336.03,080820,,,A*49
$GPRMC,025903.000,A,3935.3677,N,10449.0638,W,42.04,335.38,080820,,,A*43
$GPRMC,025904.000,A,3935.3785,N,10449.0700,W,42.79,335.80,080820,,,A*4B
$GPRMC,025905.000,A,3935.3894,N,10449.0762,W,42.74,335.96,080820,,,A*4B
$GPRMC,025906.000,A,3935.4003,N,10449.0825,W,42.67,335.40,080820,,,A*4C
$GPRMC,025907.000,A,3935.4109,N,10449.0889,W,42.82,334.71,080820,,,A*48
$GPRMC,025908.000,A,3935.4214,N,10449.0954,W,41.35,334.44,080820,,,A*40
$GPRMC,025909.000,A,3935.4318,N,10449.1018,W,41.29,335.00,080820,,,A*40
$GPRMC,025910.000,A,3935.4422,N,10449.1080,W,41.05,334.87,080820,,,A*47
$GPRMC,025911.000,A,3935.4527,N,10449.1143,W,40.99,335.22,080820,,,A*46
$GPRMC,025912.000,A,3935.4632,N,10449.1205,W,41.43,335.05,080820,,,A*40
$GPRMC,025913.000,A,3935.4737,N,10449.1266,W,40.93,335.33,080820,,,A*49
$GPRMC,025914.000,A,3935.4840,N,10449.1327,W,41.03,335.56,080820,,,A*4E
$GPRMC,025915.000,A,3935.4943,N,10449.1386,W,40.38,335.41,080820,,,A*49
$GPRMC,025916.000,A,3935.5045,N,10449.1446,W,40.05,335.65,080820,,,A*47
$GPRMC,025917.000,A,3935.5146,N,10449.1505,W,39.80,335.27,080820,,,A*47
$GPRMC,025918.000,A,3935.5246,N,10449.1565,W,39.77,335.01,080820,,,A*41
$GPRMC,025919.000,A,3935.5347,N,10449.1626,W,39.65,335.06,080820,,,A*40
$GPRMC,025920.000,A,3935.5449,N,10449.1686,W,39.56,335.66,080820,,,A*4F
$GPRMC,025921.000,A,3935.5550,N,10449.1746,W,39.59,335.38,080820,,,A*4E
$GPRMC,025922.000,A,3935.5652,N,10449.1804,W,39.60,335.95,080820,,,A*48
$GPRMC,025923.000,A,3935.5751,N,10449.1861,W,39.48,336.19,080820,,,A*45
$GPRMC,025924.000,A,3935.5849,N,10449.1915,W,39.41,337.00,080820,,,A*46
$GPRMC,025925.000,A,3935.5943,N,10449.1966,W,35.19,336.67,080820,,,A*49
$GPRMC,025926.000,A,3935.6028,N,10449.2014,W,32.11,336.14,080820,,,A*49
$GPRMC,025927.000,A,3935.6106,N,10449.2060,W,29.89,336.16,080820,,,A*4F
$GPRMC,025928.000,A,3935.6181,N,10449.2103,W,28.86,335.81,080820,,,A*48
$GPRMC,025929.000,A,3935.6254,N,10449.2146,W,28.31,335.47,080820,,,A*45
$GPRMC,025930.000,A,3935.6324,N,10449.2187,W,27.28,334.72,080820,,,A*46
$GPRMC,025931.000,A,3935.6391,N,10449.2227,W,25.74,334.69,080820,,,A*41
$GPRMC,025932.000,A,3935.6453,N,10449.2265,W,23.62,334.92,080820,,,A*48
$GPRMC,025933.000,A,3935.6511,N,10449.2297,W,21.89,337.20,080820,,,A*4E
$GPRMC,025934.000,A,3935.6560,N,10449.2326,W,18.60,338.47,080820,,,A*47
$GPRMC,025935.000,A,3935.6599,N,10449.2348,W,15.55,338.75,080820,,,A*42
$GPRMC,025936.000,A,3935.6632,N,10449.2366,W,13.33,338.08,080820,,,A*43
$GPRMC,025937.000,A,3935.6654,N,10449.2378,W,10.77,337.73,080820,,,A*4D
$GPRMC,025938.000,A,3935.6677,N,10449.2391,W,9.13,336.46,080820,,,A*79
$GPRMC,025939.000,A,3935.6691,N,10449.2404,W,6.75,334.83,080820,,,A*7F
$GPRMC,025940.000,A,3935.6703,N,10449.2415,W,5.05,332.20,080820,,,A*70
$GPRMC,025941.000,A,3935.6711,N,10449.2420,W,3.71,340.00,080820,,,A*76
$GPRMC,025942.000,A,3935.6716,N,10449.2423,W,2.03,335.01,080820,,,A*76
$GPRMC,025943.000,A,3935.6716,N,10449.2425,W,0.04,335.01,080820,,,A*74
$GPRMC,025944.000,A,3935.6714,N,10449.2426,W,0.03,335.01,080820,,,A*75
$GPRMC,025945.000,A,3935.6713,N,10449.2425,W,0.02,335.01,080820,,,A*71
$GPRMC,025946.000,A,3935.6713,N,10449.2425,W,0.01,335.01,080820,,,A*71
$GPRMC,025947.000,A,3935.6713,N,10449.2425,W,0.02,335.01,080820,,,A*73
$GPRMC,025948.000,A,3935.6714,N,10449.2425,W,0.02,335.01,080820,,,A*7B
$GPRMC,025949.000,A,3935.6714,N,10449.2425,W,0.01,335.01,080820,,,A*79
$GPRMC,025950.000,A,3935.6714,N,10449.2426,W,0.01,335.01,080820,,,A*72
$GPRMC,025951.000,A,3935.6714,N,10449.2426,W,0.01,335.01,080820,,,A*73
$GPRMC,025952.000,A,3935.6715,N,10449.2426,W,0.02,335.01,080820,,,A*72
$GPRMC,025953.000,A,3935.6715,N,10449.2426,W,0.02,335.01,080820,,,A*73
$GPRMC,025954.000,A,3935.6715,N,10449.2426,W,0.01,335.01,080820,,,A*77
$GPRMC,025955.000,A,3935.6716,N,10449.2425,W,0.01,335.01,080820,,,A*76
$GPRMC,025956.000,A,3935.6715,N,10449.2425,W,0.02,335.01,080820,,,A*75
$GPRMC,025957.000,A,3935.6715,N,10449.2424,W,0.02,335.01,080820,,,A*75
$GPRMC,025958.000,A,3935.6715,N,10449.2424,W,0.01,335.01,080820,,,A*79
$GPRMC,025959.000,A,3935.6715,N,10449.2424,W,0.01,335.01,080820,,,A*78
$GPRMC,030000.000,A,3935.6715,N,10449.2424,W,0.01,335.01,080820,,,A*79
$GPRMC,030001.000,A,3935.6715,N,10449.2423,W,0.02,335.01,080820,,,A*7C
$GPRMC,030002.000,A,3935.6715,N,10449.2423,W,0.02,335.01,080820,,,A*7F
$GPRMC,030003.000,A,3935.6715,N,10449.2423,W,0.00,335.01,080820,,,A*7C
$GPRMC,030004.000,A,3935.6715,N,10449.2422,W,0.00,335.01,080820,,,A*7A
$GPRMC,030005.000,A,3935.6715,N,10449.2423,W,0.02,335.01,080820,,,A*78
$GPRMC,030006.000,A,3935.6716,N,10449.2422,W,0.02,335.01,080820,,,A*79
$GPRMC,030007.000,A,3935.6716,N,10449.2421,W,0.24,335.01,080820,,,A*7F
$GPRMC,030008.000,A,3935.6716,N,10449.2421,W,0.46,335.01,080820,,,A*74
$GPRMC,030009.000,A,3935.6716,N,10449.2419,W,0.47,335.01,080820,,,A*7F
$GPRMC,030010.000,A,3935.6715,N,10449.2418,W,0.44,335.01,080820,,,A*76
$GPRMC,030011.000,A,3935.6714,N,10449.2417,W,0.52,335.01,080820,,,A*7E
$GPRMC,030012.000,A,3935.6714,N,10449.2415,W,0.42,335.01,080820,,,A*7E
$GPRMC,030013.000,A,3935.6713,N,10449.2414,W,0.42,335.01,080820,,,A*79
$GPRMC,030014.000,A,3935.6713,N,10449.2412,W,0.47,335.01,080820,,,A*7D
$GPRMC,030015.000,A,3935.6712,N,10449.2411,W,0.37,335.01,080820,,,A*79
$GPRMC,030016.000,A,3935.6712,N,10449.2410,W,0.36,335.01,080820,,,A*7A
$GPRMC,030017.000,A,3935.6711,N,10449.2409,W,0.32,335.01,080820,,,A*74
$GPRMC,030018.000,A,3935.6711,N,10449.2407,W,0.28,335.01,080820,,,A*7E
$GPRMC,030019.000,A,3935.6711,N,10449.2406,W,0.29,335.01,080820,,,A*7F
$GPRMC,030020.000,A,3935.6711,N,10449.2405,W,0.37,335.01,080820,,,A*79
$GPRMC,030021.000,A,3935.6711,N,10449.2404,W,0.53,335.01,080820,,,A*7B
$GPRMC,030022.000,A,3935.6710,N,10449.2403,W,0.35,335.01,080820,,,A*7E
$GPRMC,030023.000,A,3935.6709,N,10449.2402,W,0.23,335.01,080820,,,A*71
$GPRMC,030024.000,A,3935.6708,N,10449.2402,W,0.21,335.01,080820,,,A*75
$GPRMC,030025.000,A,3935.6709,N,10449.2403,W,0.58,335.01,080820,,,A*7A
$GPRMC,030026.000,A,3935.6710,N,10449.2405,W,0.73,335.01,080820,,,A*7E
$GPRMC,030027.000,A,3935.6711,N,10449.2406,W,0.72,335.01,080820,,,A*7C
$GPRMC,030028.000,A,3935.6713,N,10449.2408,W,0.45,335.01,080820,,,A*7B
$GPRMC,030029.000,A,3935.6713,N,10449.2409,W,0.41,335.01,080820,,,A*7F
$GPRMC,030030.000,A,3935.6713,N,10449.2411,W,0.49,335.01,080820,,,A*76
$GPRMC,030031.000,A,3935.6713,N,10449.2413,W,0.54,335.01,080820,,,A*79
$GPRMC,030032.000,A,3935.6713,N,10449.2414,W,0.50,335.01,080820,,,A*79
$GPRMC,030033.000,A,3935.6713,N,10449.2416,W,0.52,335.01,080820,,,A*78
$GPRMC,030034.000,A,3935.6714,N,10449.2418,W,0.41,335.01,080820,,,A*74
$GPRMC,030035.000,A,3935.6714,N,10449.2419,W,0.31,335.01,080820,,,A*73
$GPRMC,030036.000,A,3935.6715,N,10449.2420,W,0.21,335.01,080820,,,A*7A
$GPRMC,030037.000,A,3935.6715,N,10449.2421,W,0.09,335.01,080820,,,A*70
$GPRMC,030038.000,A,3935.6715,N,10449.2421,W,0.25,335.01,080820,,,A*71
$GPRMC,030039.000,A,3935.6716,N,10449.2422,W,0.67,335.01,080820,,,A*76
$GPRMC,030040.000,A,3935.6717,N,10449.2423,W,1.62,335.01,080820,,,A*7C
$GPRMC,030041.000,A,3935.6720,N,10449.2427,W,3.40,321.28,080820,,,A*71
$GPRMC,030042.000,A,3935.6730,N,10449.2439,W,5.64,321.51,080820,,,A*72
$GPRMC,030043.000,A,3935.6754,N,10449.2461,W,8.63,326.90,080820,,,A*7C
$GPRMC,030044.000,A,3935.6784,N,10449.2481,W,11.51,328.97,080820,,,A*48
$GPRMC,030045.000,A,3935.6820,N,10449.2509,W,14.57,327.54,080820,,,A*4A
$GPRMC,030046.000,A,3935.6863,N,10449.2548,W,18.68,323.46,080820,,,A*4C
$GPRMC,030047.000,A,3935.6911,N,10449.2600,W,21.32,319.73,080820,,,A*4C
$GPRMC,030048.000,A,3935.6956,N,10449.2660,W,23.10,310.11,080820,,,A*49
$GPRMC,030049.000,A,3935.6997,N,10449.2730,W,24.28,305.27,080820,,,A*4C
$GPRMC,030050.000,A,3935.7016,N,10449.2815,W,24.23,282.73,080820,,,A*49
$GPRMC,030051.000,A,3935.7027,N,10449.2907,W,24.97,275.78,080820,,,A*44
$GPRMC,030052.000,A,3935.7029,N,10449.3006,W,25.80,269.13,080820,,,A*47
$GPRMC,030053.000,A,3935.7027,N,10449.3110,W,28.93,268.07,080820,,,A*45
$GPRMC,030054.000,A,3935.7023,N,10449.3219,W,29.48,268.12,080820,,,A*4F
$GPRMC,030055.000,A,3935.7021,N,10449.3328,W,29.99,268.44,080820,,,A*40
$GPRMC,030056.000,A,3935.7019,N,10449.3438,W,30.47,269.25,080820,,,A*43
$GPRMC,030057.000,A,3935.7018,N,10449.3553,W,30.92,269.71,080820,,,A*46
$GPRMC,030058.000,A,3935.7018,N,10449.3667,W,30.75,270.07,080820,,,A*4D
$GPRMC,030059.000,A,3935.7018,N,10449.3781,W,30.33,270.27,080820,,,A*45
$GPRMC,030100.000,A,3935.7017,N,10449.3894,W,30.38,270.36,080820,,,A*47
$GPRMC,030101.000,A,3935.7017,N,10449.4006,W,30.58,270.09,080820,,,A*48
$GPRMC,030102.000,A,3935.7018,N,10449.4120,W,31.44,269.88,080820,,,A*4C
$GPRMC,030103.000,A,3935.7018,N,10449.4237,W,32.22,270.39,080820,,,A*49
$GPRMC,030104.000,A,3935.7018,N,10449.4355,W,32.83,270.08,080820,,,A*42
$GPRMC,030105.000,A,3935.7018,N,10449.4475,W,33.42,270.44,080820,,,A*42
$GPRMC,030106.000,A,3935.7018,N,10449.4597,W,33.49,270.13,080820,,,A*45
$GPRMC,030107.000,A,3935.7019,N,10449.4720,W,33.80,270.26,080820,,,A*48
$GPRMC,030107.000,A,3935.7019,N,10449.4844,W,34.07,270.04,080820,,,A*4D
$GPRMC,030108.000,A,3935.7017,N,10449.4967,W,34.31,268.57,080820,,,A*46
$GPRMC,030109.000,A,3935.7017,N,10449.5093,W,34.78,269.59,080820,,,A*46
$GPRMC,030110.000,A,3935.7017,N,10449.5220,W,35.38,270.04,080820,,,A*41
$GPRMC,030111.000,A,3935.7019,N,10449.5350,W,36.00,270.80,080820,,,A*4C
$GPRMC,030112.000,A,3935.7016,N,10449.5484,W,36.55,270.16,080820,,,A*41
$GPRMC,030113.000,A,3935.7018,N,10449.5618,W,37.28,270.16,080820,,,A*42
$GPRMC,030114.000,A,3935.7018,N,10449.5754,W,37.94,270.15,080820,,,A*48
$GPRMC,030115.000,A,3935.7020,N,10449.5893,W,38.56,270.32,080820,,,A*42
$GPRMC,030116.000,A,3935.7020,N,10449.6033,W,39.09,270.04,080820,,,A*4E
$GPRMC,030117.000,A,3935.7020,N,10449.6175,W,39.62,270.11,080820,,,A*45
$GPRMC,030118.000,A,3935.7020,N,10449.6319,W,40.00,270.14,080820,,,A*4D
$GPRMC,030119.000,A,3935.7020,N,10449.6464,W,39.93,270.24,080820,,,A*46
$GPRMC,030120.000,A,3935.7021,N,10449.6608,W,39.90,270.41,080820,,,A*45
$GPRMC,030121.000,A,3935.7021,N,10449.6752,W,39.91,270.47,080820,,,A*4D
$GPRMC,030122.000,A,3935.7022,N,10449.6896,W,39.98,270.27,080820,,,A*45
$GPRMC,030123.000,A,3935.7022,N,10449.7041,W,39.75,270.21,080820,,,A*42
$GPRMC,030124.000,A,3935.7024,N,10449.7184,W,39.56,270.34,080820,,,A*4E
$GPRMC,030125.000,A,3935.7025,N,10449.7327,W,39.54,270.79,080820,,,A*4E
$GPRMC,030126.000,A,3935.7028,N,10449.7470,W,39.57,271.43,080820,,,A*4E
$GPRMC,030127.000,A,3935.7031,N,10449.7614,W,39.78,271.59,080820,,,A*41
$GPRMC,030128.000,A,3935.7035,N,10449.7758,W,39.62,271.60,080820,,,A*42
$GPRMC,030129.000,A,3935.7038,N,10449.7904,W,40.59,271.42,080820,,,A*4F
$GPRMC,030130.000,A,3935.7041,N,10449.8051,W,41.18,271.27,080820,,,A*48
$GPRMC,030131.000,A,3935.7044,N,10449.8201,W,41.70,271.04,080820,,,A*44
$GPRMC,030132.000,A,3935.7046,N,10449.8352,W,42.11,270.93,080820,,,A*49
$GPRMC,030133.000,A,3935.7048,N,10449.8504,W,42.42,270.94,080820,,,A*42
$GPRMC,030134.000,A,3935.7050,N,10449.8657,W,42.35,271.12,080820,,,A*46
$GPRMC,030135.000,A,3935.7052,N,10449.8808,W,42.61,270.96,080820,,,A*4D
$GPRMC,030136.000,A,3935.7054,N,10449.8958,W,41.66,270.67,080820,,,A*46
$GPRMC,030137.000,A,3935.7055,N,10449.9107,W,41.21,270.29,080820,,,A*4C
$GPRMC,030138.000,A,3935.7055,N,10449.9255,W,40.97,270.04,080820,,,A*44
$GPRMC,030139.000,A,3935.7056,N,10449.9402,W,40.90,269.77,080820,,,A*49
$GPRMC,030140.000,A,3935.7055,N,10449.9548,W,40.83,269.80,080820,,,A*41
$GPRMC,030141.000,A,3935.7055,N,10449.9695,W,40.83,270.12,080820,,,A*40
$GPRMC,030142.000,A,3935.7056,N,10449.9843,W,41.08,270.28,080820,,,A*4E
$GPRMC,030143.000,A,3935.7056,N,10449.9991,W,41.30,270.13,080820,,,A*42
$GPRMC,030144.000,A,3935.7057,N,10450.0140,W,41.49,270.02,080820,,,A*4F
$GPRMC,030145.000,A,3935.7057,N,10450.0290,W,41.74,270.01,080820,,,A*4D
$GPRMC,030146.000,A,3935.7057,N,10450.0441,W,41.71,269.91,080820,,,A*40
$GPRMC,030147.000,A,3935.7058,N,10450.0590,W,41.32,270.14,080820,,,A*41
$GPRMC,030148.000,A,3935.7059,N,10450.0738,W,41.12,270.23,080820,,,A*49
$GPRMC,030149.000,A,3935.7059,N,10450.0886,W,40.80,269.94,080820,,,A*4C
$GPRMC,030150.000,A,3935.7059,N,10450.1032,W,40.92,270.02,080820,,,A*46
$GPRMC,030151.000,A,3935.7059,N,10450.1178,W,40.47,269.92,080820,,,A*41
$GPRMC,030152.000,A,3935.7060,N,10450.1324,W,40.66,270.24,080820,,,A*45
$GPRMC,030153.000,A,3935.7060,N,10450.1468,W,40.46,269.17,080820,,,A*41
$GPRMC,030154.000,A,3935.7059,N,10450.1608,W,38.26,269.68,080820,,,A*49
$GPRMC,030155.000,A,3935.7059,N,10450.1743,W,36.43,270.19,080820,,,A*45
$GPRMC,030156.000,A,3935.7060,N,10450.1871,W,34.33,270.65,080820,,,A*4C
$GPRMC,030157.000,A,3935.7063,N,10450.1992,W,33.13,271.18,080820,,,A*4C
$GPRMC,030158.000,A,3935.7064,N,10450.2110,W,32.71,271.09,080820,,,A*40
$GPRMC,030159.000,A,3935.7065,N,10450.2226,W,32.49,270.64,080820,,,A*47
$GPRMC,030200.000,A,3935.7066,N,10450.2343,W,32.66,270.25,080820,,,A*41
$GPRMC,030201.000,A,3935.7066,N,10450.2460,W,32.70,270.60,080820,,,A*40
$GPRMC,030202.000,A,3935.7067,N,10450.2578,W,32.75,270.36,080820,,,A*4C
$GPRMC,030203.000,A,3935.7067,N,10450.2697,W,32.66,270.43,080820,,,A*4F
$GPRMC,030204.000,A,3935.7067,N,10450.2815,W,32.76,270.35,080820,,,A*4C
$GPRMC,030205.000,A,3935.7067,N,10450.2933,W,32.77,270.34,080820,,,A*48
$GPRMC,030206.000,A,3935.7067,N,10450.3048,W,31.88,269.95,080820,,,A*4F
$GPRMC,030207.000,A,3935.7067,N,10450.3160,W,30.74,270.73,080820,,,A*47
$GPRMC,030208.000,A,3935.7068,N,10450.3267,W,29.45,270.60,080820,,,A*4B
$GPRMC,030209.000,A,3935.7070,N,10450.3369,W,28.02,271.06,080820,,,A*4F
$GPRMC,030210.000,A,3935.7072,N,10450.3465,W,26.10,271.71,080820,,,A*43
$GPRMC,030211.000,A,3935.7074,N,10450.3556,W,24.86,271.89,080820,,,A*4F
$GPRMC,030212.000,A,3935.7075,N,10450.3643,W,24.03,271.56,080820,,,A*45
$GPRMC,030213.000,A,3935.7076,N,10450.3725,W,22.43,271.74,080820,,,A*44
$GPRMC,030214.000,A,3935.7077,N,10450.3801,W,20.83,272.31,080820,,,A*47
$GPRMC,030215.000,A,3935.7078,N,10450.3873,W,19.94,271.93,080820,,,A*4B
$GPRMC,030216.000,A,3935.7078,N,10450.3942,W,19.37,270.75,080820,,,A*4B
$GPRMC,030217.000,A,3935.7077,N,10450.4011,W,19.41,270.66,080820,,,A*4E
$GPRMC,030218.000,A,3935.7077,N,10450.4082,W,20.59,270.57,080820,,,A*4A
$GPRMC,030219.000,A,3935.7077,N,10450.4158,W,21.59,270.39,080820,,,A*44
$GPRMC,030220.000,A,3935.7077,N,10450.4237,W,22.76,270.37,080820,,,A*44
$GPRMC,030221.000,A,3935.7077,N,10450.4321,W,24.12,270.25,080820,,,A*44
$GPRMC,030222.000,A,3935.7078,N,10450.4411,W,25.58,270.10,080820,,,A*45
$GPRMC,030223.000,A,3935.7078,N,10450.4505,W,26.79,270.00,080820,,,A*41
$GPRMC,030224.000,A,3935.7078,N,10450.4604,W,28.11,269.64,080820,,,A*4E
$GPRMC,030225.000,A,3935.7078,N,10450.4708,W,29.44,269.92,080820,,,A*4A
$GPRMC,030226.000,A,3935.7079,N,10450.4815,W,30.46,270.64,080820,,,A*40
$GPRMC,030227.000,A,3935.7080,N,10450.4927,W,31.57,270.85,080820,,,A*49
$GPRMC,030228.000,A,3935.7082,N,10450.5042,W,32.81,270.34,080820,,,A*4D
$GPRMC,030229.000,A,3935.7083,N,10450.5162,W,33.51,270.86,080820,,,A*4B
$GPRMC,030230.000,A,3935.7083,N,10450.5285,W,34.74,270.38,080820,,,A*4C
$GPRMC,030231.000,A,3935.7082,N,10450.5410,W,34.94,270.35,080820,,,A*45
$GPRMC,030232.000,A,3935.7082,N,10450.5536,W,34.99,270.09,080820,,,A*41
$GPRMC,030233.000,A,3935.7082,N,10450.5664,W,35.39,269.70,080820,,,A*49
$GPRMC,030234.000,A,3935.7081,N,10450.5793,W,35.74,270.06,080820,,,A*44
$GPRMC,030235.000,A,3935.7078,N,10450.5925,W,35.81,269.79,080820,,,A*4A
$GPRMC,030236.000,A,3935.7078,N,10450.6056,W,36.01,269.93,080820,,,A*48
$GPRMC,030237.000,A,3935.7079,N,10450.6185,W,35.72,270.14,080820,,,A*47
$GPRMC,030238.000,A,3935.7080,N,10450.6312,W,35.94,270.60,080820,,,A*49
$GPRMC,030239.000,A,3935.7081,N,10450.6436,W,35.82,270.85,080820,,,A*44
$GPRMC,030240.000,A,3935.7083,N,10450.6556,W,32.91,270.44,080820,,,A*47
$GPRMC,030241.000,A,3935.7083,N,10450.6673,W,32.20,270.14,080820,,,A*4D
$GPRMC,030242.000,A,3935.7084,N,10450.6786,W,31.38,270.04,080820,,,A*49
$GPRMC,030243.000,A,3935.7084,N,10450.6898,W,30.61,269.87,080820,,,A*46
$GPRMC,030244.000,A,3935.7084,N,10450.7007,W,30.00,269.61,080820,,,A*41
$GPRMC,030245.000,A,3935.7084,N,10450.7113,W,29.16,269.77,080820,,,A*4C
$GPRMC,030246.000,A,3935.7083,N,10450.7214,W,27.52,270.06,080820,,,A*4C
$GPRMC,030247.000,A,3935.7083,N,10450.7310,W,25.66,269.82,080820,,,A*49
$GPRMC,030248.000,A,3935.7082,N,10450.7399,W,24.30,269.87,080820,,,A*41
$GPRMC,030249.000,A,3935.7082,N,10450.7485,W,23.39,270.74,080820,,,A*40
$GPRMC,030250.000,A,3935.7084,N,10450.7567,W,22.65,271.07,080820,,,A*4E
$GPRMC,030251.000,A,3935.7085,N,10450.7646,W,22.28,271.10,080820,,,A*41
$GPRMC,030252.000,A,3935.7086,N,10450.7726,W,22.21,271.66,080820,,,A*4E
$GPRMC,030253.000,A,3935.7087,N,10450.7804,W,21.74,270.24,080820,,,A*45
$GPRMC,030254.000,A,3935.7087,N,10450.7882,W,21.47,269.57,080820,,,A*40
$GPRMC,030255.000,A,3935.7087,N,10450.7958,W,20.92,270.17,080820,,,A*42
$GPRMC,030256.000,A,3935.7086,N,10450.8031,W,20.36,269.63,080820,,,A*4C
$GPRMC,030257.000,A,3935.7086,N,10450.8103,W,20.05,270.74,080820,,,A*43
$GPRMC,030258.000,A,3935.7087,N,10450.8175,W,19.66,270.75,080820,,,A*42
$GPRMC,030259.000,A,3935.7087,N,10450.8244,W,19.26,270.61,080820,,,A*43
$GPRMC,030300.000,A,3935.7087,N,10450.8314,W,19.22,270.48,080820,,,A*45
$GPRMC,030301.000,A,3935.7087,N,10450.8384,W,19.51,271.28,080820,,,A*4E
$GPRMC,030302.000,A,3935.7088,N,10450.8455,W,20.35,270.47,080820,,,A*49
$GPRMC,030303.000,A,3935.7087,N,10450.8530,W,21.62,270.24,080820,,,A*43
$GPRMC,030304.000,A,3935.7087,N,10450.8610,W,22.81,269.65,080820,,,A*46
$GPRMC,030305.000,A,3935.7086,N,10450.8694,W,24.00,269.31,080820,,,A*44
$GPRMC,030306.000,A,3935.7085,N,10450.8783,W,25.29,270.01,080820,,,A*42
$GPRMC,030307.000,A,3935.7085,N,10450.8876,W,26.96,270.22,080820,,,A*40
$GPRMC,030308.000,A,3935.7084,N,10450.8975,W,27.91,269.89,080820,,,A*43
$GPRMC,030309.000,A,3935.7084,N,10450.9079,W,29.41,269.59,080820,,,A*48
$GPRMC,030310.000,A,3935.7084,N,10450.9187,W,30.78,270.14,080820,,,A*43
$GPRMC,030311.000,A,3935.7083,N,10450.9300,W,32.07,269.03,080820,,,A*4C
$GPRMC,030312.000,A,3935.7082,N,10450.9419,W,33.15,269.59,080820,,,A*4C
$GPRMC,030313.000,A,3935.7080,N,10450.9541,W,34.18,269.37,080820,,,A*41
$GPRMC,030314.000,A,3935.7078,N,10450.9665,W,34.78,269.14,080820,,,A*43
$GPRMC,030315.000,A,3935.7077,N,10450.9792,W,35.60,269.14,080820,,,A*4C
$GPRMC,030316.000,A,3935.7075,N,10450.9922,W,36.02,269.05,080820,,,A*4F
$GPRMC,030317.000,A,3935.7075,N,10451.0054,W,36.62,270.05,080820,,,A*40
$GPRMC,030318.000,A,3935.7075,N,10451.0188,W,37.28,270.17,080820,,,A*43
$GPRMC,030319.000,A,3935.7076,N,10451.0324,W,37.79,270.56,080820,,,A*44
$GPRMC,030320.000,A,3935.7077,N,10451.0462,W,38.07,270.23,080820,,,A*4E
$GPRMC,030321.000,A,3935.7077,N,10451.0600,W,38.32,270.00,080820,,,A*4E
$GPRMC,030322.000,A,3935.7079,N,10451.0738,W,38.69,270.63,080820,,,A*42
$GPRMC,030323.000,A,3935.7081,N,10451.0878,W,38.88,270.36,080820,,,A*40
$GPRMC,030324.000,A,3935.7084,N,10451.1018,W,38.94,270.43,080820,,,A*42
$GPRMC,030325.000,A,3935.7084,N,10451.1159,W,38.93,269.57,080820,,,A*4D
$GPRMC,030326.000,A,3935.7083,N,10451.1300,W,39.07,269.12,080820,,,A*4A
$GPRMC,030327.000,A,3935.7083,N,10451.1439,W,38.58,269.37,080820,,,A*4A
$GPRMC,030328.000,A,3935.7083,N,10451.1578,W,38.41,269.81,080820,,,A*44
$GPRMC,030329.000,A,3935.7084,N,10451.1717,W,38.56,269.95,080820,,,A*4A
$GPRMC,030330.000,A,3935.7084,N,10451.1857,W,38.71,269.87,080820,,,A*4F
$GPRMC,030331.000,A,3935.7086,N,10451.1996,W,38.51,270.58,080820,,,A*48
$GPRMC,030332.000,A,3935.7088,N,10451.2134,W,37.81,270.62,080820,,,A*4D
$GPRMC,030333.000,A,3935.7089,N,10451.2268,W,38.10,270.29,080820,,,A*4F
$GPRMC,030334.000,A,3935.7089,N,10451.2400,W,35.95,270.07,080820,,,A*4C
$GPRMC,030335.000,A,3935.7090,N,10451.2529,W,35.35,270.19,080820,,,A*4A
$GPRMC,030336.000,A,3935.7091,N,10451.2656,W,34.98,270.33,080820,,,A*4D
$GPRMC,030337.000,A,3935.7091,N,10451.2780,W,34.13,270.27,080820,,,A*40
$GPRMC,030338.000,A,3935.7090,N,10451.2902,W,33.48,270.00,080820,,,A*46
$GPRMC,030339.000,A,3935.7090,N,10451.3021,W,32.87,270.66,080820,,,A*4C
$GPRMC,030340.000,A,3935.7092,N,10451.3137,W,31.78,270.85,080820,,,A*48
$GPRMC,030341.000,A,3935.7093,N,10451.3249,W,30.59,271.24,080820,,,A*4A
$GPRMC,030342.000,A,3935.7095,N,10451.3356,W,28.91,270.62,080820,,,A*4E
$GPRMC,030343.000,A,3935.7096,N,10451.3456,W,26.82,270.82,080820,,,A*49
$GPRMC,030344.000,A,3935.7097,N,10451.3549,W,25.50,271.15,080820,,,A*43
$GPRMC,030345.000,A,3935.7097,N,10451.3640,W,25.32,270.03,080820,,,A*4A
$GPRMC,030346.000,A,3935.7096,N,10451.3730,W,25.71,269.55,080820,,,A*42
$GPRMC,030347.000,A,3935.7094,N,10451.3823,W,26.05,269.44,080820,,,A*4C
$GPRMC,030348.000,A,3935.7093,N,10451.3916,W,26.38,269.29,080820,,,A*46
$GPRMC,030349.000,A,3935.7091,N,10451.4011,W,26.43,269.61,080820,,,A*4C
$GPRMC,030350.000,A,3935.7090,N,10451.4105,W,26.40,269.73,080820,,,A*41
$GPRMC,030351.000,A,3935.7090,N,10451.4200,W,26.58,270.86,080820,,,A*4D
$GPRMC,030352.000,A,3935.7091,N,10451.4296,W,26.86,271.09,080820,,,A*45
$GPRMC,030353.000,A,3935.7090,N,10451.4392,W,26.81,269.04,080820,,,A*43
$GPRMC,030354.000,A,3935.7088,N,10451.4488,W,26.89,269.23,080820,,,A*4C
$GPRMC,030355.000,A,3935.7087,N,10451.4586,W,26.96,270.04,080820,,,A*4E
$GPRMC,030356.000,A,3935.7088,N,10451.4684,W,27.45,270.76,080820,,,A*49
$GPRMC,030357.000,A,3935.7089,N,10451.4784,W,27.31,271.13,080820,,,A*49
$GPRMC,030358.000,A,3935.7091,N,10451.4886,W,29.06,271.40,080820,,,A*4E
$GPRMC,030359.000,A,3935.7092,N,10451.4994,W,28.51,270.39,080820,,,A*42
$GPRMC,030400.000,A,3935.7091,N,10451.5106,W,32.28,269.66,080820,,,A*4F
$GPRMC,030401.000,A,3935.7091,N,10451.5224,W,33.53,270.20,080820,,,A*4A
$GPRMC,030402.000,A,3935.7091,N,10451.5345,W,34.63,269.84,080820,,,A*4D
$GPRMC,030403.000,A,3935.7091,N,10451.5471,W,35.45,269.58,080820,,,A*48
$GPRMC,030404.000,A,3935.7091,N,10451.5600,W,36.23,270.07,080820,,,A*4A
$GPRMC,030405.000,A,3935.7091,N,10451.5731,W,36.67,270.19,080820,,,A*47
$GPRMC,030406.000,A,3935.7092,N,10451.5864,W,37.29,270.35,080820,,,A*4D
$GPRMC,030407.000,A,3935.7093,N,10451.5998,W,37.06,270.41,080820,,,A*41
$GPRMC,030408.000,A,3935.7092,N,10451.6130,W,36.72,269.88,080820,,,A*49
$GPRMC,030409.000,A,3935.7090,N,10451.6263,W,37.20,269.75,080820,,,A*4B
$GPRMC,030410.000,A,3935.7089,N,10451.6393,W,37.10,269.80,080820,,,A*4C
$GPRMC,030411.000,A,3935.7088,N,10451.6523,W,37.00,269.72,080820,,,A*4D
$GPRMC,030412.000,A,3935.7088,N,10451.6653,W,35.60,269.94,080820,,,A*46
$GPRMC,030413.000,A,3935.7088,N,10451.6779,W,36.19,270.06,080820,,,A*40
$GPRMC,030414.000,A,3935.7088,N,10451.6904,W,34.36,269.62,080820,,,A*46
$GPRMC,030415.000,A,3935.7088,N,10451.7028,W,34.11,270.33,080820,,,A*48
$GPRMC,030416.000,A,3935.7089,N,10451.7151,W,33.69,270.21,080820,,,A*4E
$GPRMC,030417.000,A,3935.7090,N,10451.7271,W,33.13,270.92,080820,,,A*43
$GPRMC,030418.000,A,3935.7091,N,10451.7390,W,32.81,270.34,080820,,,A*45
$GPRMC,030419.000,A,3935.7091,N,10451.7509,W,32.77,269.92,080820,,,A*4F
$GPRMC,030420.000,A,3935.7092,N,10451.7627,W,32.44,270.10,080820,,,A*4B
$GPRMC,030421.000,A,3935.7092,N,10451.7743,W,31.88,270.36,080820,,,A*4E
$GPRMC,030422.000,A,3935.7092,N,10451.7857,W,31.92,270.62,080820,,,A*4D
$GPRMC,030423.000,A,3935.7093,N,10451.7966,W,29.82,270.75,080820,,,A*40
$GPRMC,030424.000,A,3935.7093,N,10451.8071,W,28.55,270.19,080820,,,A*46
$GPRMC,030425.000,A,3935.7092,N,10451.8171,W,27.47,269.54,080820,,,A*4A
$GPRMC,030426.000,A,3935.7092,N,10451.8269,W,26.90,269.68,080820,,,A*47
$GPRMC,030427.000,A,3935.7091,N,10451.8365,W,26.84,270.09,080820,,,A*42
$GPRMC,030428.000,A,3935.7091,N,10451.8462,W,26.10,270.76,080820,,,A*48
$GPRMC,030429.000,A,3935.7091,N,10451.8560,W,27.28,271.32,080820,,,A*41
$GPRMC,030430.000,A,3935.7092,N,10451.8657,W,26.82,270.74,080820,,,A*4F
$GPRMC,030431.000,A,3935.7093,N,10451.8753,W,26.78,271.57,080820,,,A*4F
$GPRMC,030432.000,A,3935.7095,N,10451.8851,W,26.84,274.29,080820,,,A*48
$GPRMC,030433.000,A,3935.7099,N,10451.8950,W,26.94,273.75,080820,,,A*4A
$GPRMC,030434.000,A,3935.7101,N,10451.9053,W,27.15,272.53,080820,,,A*4B
$GPRMC,030435.000,A,3935.7102,N,10451.9161,W,30.57,269.98,080820,,,A*44
$GPRMC,030436.000,A,3935.7101,N,10451.9274,W,31.93,269.35,080820,,,A*4D
$GPRMC,030437.000,A,3935.7099,N,10451.9392,W,33.21,269.20,080820,,,A*4A
$GPRMC,030438.000,A,3935.7096,N,10451.9512,W,33.99,269.03,080820,,,A*46
$GPRMC,030439.000,A,3935.7094,N,10451.9634,W,33.76,269.94,080820,,,A*4D
$GPRMC,030440.000,A,3935.7095,N,10451.9755,W,34.88,270.21,080820,,,A*44
$GPRMC,030441.000,A,3935.7096,N,10451.9873,W,32.87,270.59,080820,,,A*4B
$GPRMC,030442.000,A,3935.7096,N,10451.9989,W,32.63,270.18,080820,,,A*43
$GPRMC,030443.000,A,3935.7097,N,10452.0106,W,32.81,270.06,080820,,,A*45
$GPRMC,030444.000,A,3935.7098,N,10452.0223,W,32.84,269.91,080820,,,A*4A
$GPRMC,030445.000,A,3935.7098,N,10452.0340,W,33.07,270.01,080820,,,A*44
$GPRMC,030446.000,A,3935.7099,N,10452.0458,W,33.07,269.97,080820,,,A*4F
$GPRMC,030447.000,A,3935.7100,N,10452.0576,W,32.83,270.63,080820,,,A*4C
$GPRMC,030448.000,A,3935.7102,N,10452.0693,W,32.83,271.38,080820,,,A*46
$GPRMC,030449.000,A,3935.7104,N,10452.0811,W,33.04,270.92,080820,,,A*4A
$GPRMC,030450.000,A,3935.7106,N,10452.0930,W,33.01,270.94,080820,,,A*41
$GPRMC,030451.000,A,3935.7108,N,10452.1048,W,33.03,270.34,080820,,,A*41
$GPRMC,030452.000,A,3935.7109,N,10452.1166,W,33.21,270.75,080820,,,A*4B
$GPRMC,030453.000,A,3935.7110,N,10452.1285,W,33.15,270.35,080820,,,A*4F
$GPRMC,030454.000,A,3935.7110,N,10452.1404,W,33.11,269.62,080820,,,A*49
$GPRMC,030455.000,A,3935.7110,N,10452.1523,W,33.36,270.14,080820,,,A*40
$GPRMC,030456.000,A,3935.7111,N,10452.1645,W,33.72,270.20,080820,,,A*46
$GPRMC,030457.000,A,3935.7112,N,10452.1765,W,33.37,269.89,080820,,,A*4D
$GPRMC,030458.000,A,3935.7111,N,10452.1886,W,33.13,269.82,080820,,,A*4E
$GPRMC,030459.000,A,3935.7111,N,10452.2005,W,33.08,269.65,080820,,,A*4C
$GPRMC,030500.000,A,3935.7111,N,10452.2124,W,32.87,270.09,080820,,,A*47
$GPRMC,030501.000,A,3935.7111,N,10452.2241,W,32.88,270.41,080820,,,A*45
$GPRMC,030502.000,A,3935.7110,N,10452.2358,W,32.70,269.65,080820,,,A*47
$GPRMC,030503.000,A,3935.7109,N,10452.2475,W,32.62,269.84,080820,,,A*4A
$GPRMC,030504.000,A,3935.7110,N,10452.2590,W,32.54,270.45,080820,,,A*4F
$GPRMC,030505.000,A,3935.7111,N,10452.2707,W,32.60,270.04,080820,,,A*41
$GPRMC,030506.000,A,3935.7110,N,10452.2824,W,32.78,269.49,080820,,,A*45
$GPRMC,030507.000,A,3935.7110,N,10452.2942,W,32.75,269.54,080820,,,A*44
$GPRMC,030508.000,A,3935.7109,N,10452.3059,W,32.78,269.83,080820,,,A*46
$GPRMC,030509.000,A,3935.7108,N,10452.3178,W,32.82,270.04,080820,,,A*46
$GPRMC,030510.000,A,3935.7108,N,10452.3297,W,32.89,270.45,080820,,,A*42
$GPRMC,030511.000,A,3935.7108,N,10452.3419,W,34.03,270.35,080820,,,A*40
$GPRMC,030512.000,A,3935.7107,N,10452.3542,W,34.21,270.00,080820,,,A*45
$GPRMC,030513.000,A,3935.7107,N,10452.3665,W,33.99,269.68,080820,,,A*40
$GPRMC,030514.000,A,3935.7106,N,10452.3788,W,34.00,269.70,080820,,,A*4A
$GPRMC,030515.000,A,3935.7105,N,10452.3911,W,34.20,269.45,080820,,,A*42
$GPRMC,030516.000,A,3935.7104,N,10452.4034,W,34.15,269.52,080820,,,A*49
$GPRMC,030517.000,A,3935.7103,N,10452.4156,W,34.12,269.61,080820,,,A*4D
$GPRMC,030518.000,A,3935.7103,N,10452.4277,W,33.52,270.39,080820,,,A*44
$GPRMC,030519.000,A,3935.7103,N,10452.4396,W,33.76,270.11,080820,,,A*47
$GPRMC,030520.000,A,3935.7103,N,10452.4509,W,33.48,269.83,080820,,,A*43
$GPRMC,030521.000,A,3935.7105,N,10452.4615,W,28.33,271.01,080820,,,A*4F
$GPRMC,030522.000,A,3935.7106,N,10452.4715,W,27.36,270.99,080820,,,A*44
$GPRMC,030523.000,A,3935.7107,N,10452.4811,W,26.10,271.21,080820,,,A*48
$GPRMC,030524.000,A,3935.7109,N,10452.4901,W,24.78,271.14,080820,,,A*4B
$GPRMC,030525.000,A,3935.7110,N,10452.4986,W,22.77,271.42,080820,,,A*47
$GPRMC,030526.000,A,3935.7110,N,10452.5062,W,20.66,269.53,080820,,,A*4D
$GPRMC,030527.000,A,3935.7110,N,10452.5132,W,18.81,270.37,080820,,,A*40
$GPRMC,030528.000,A,3935.7110,N,10452.5196,W,17.52,270.18,080820,,,A*4D
$GPRMC,030529.000,A,3935.7110,N,10452.5256,W,16.53,270.00,080820,,,A*4A
$GPRMC,030530.000,A,3935.7109,N,10452.5312,W,15.60,268.58,080820,,,A*4C
$GPRMC,030531.000,A,3935.7107,N,10452.5364,W,15.21,268.34,080820,,,A*4D
$GPRMC,030532.000,A,3935.7107,N,10452.5415,W,14.98,269.40,080820,,,A*4E
$GPRMC,030533.000,A,3935.7105,N,10452.5467,W,15.45,269.21,080820,,,A*4E
$GPRMC,030534.000,A,3935.7103,N,10452.5523,W,16.91,270.02,080820,,,A*4D
$GPRMC,030535.000,A,3935.7102,N,10452.5586,W,18.64,269.27,080820,,,A*49
$GPRMC,030536.000,A,3935.7101,N,10452.5656,W,20.63,268.74,080820,,,A*4C
$GPRMC,030537.000,A,3935.7101,N,10452.5733,W,22.26,270.69,080820,,,A*49
$GPRMC,030538.000,A,3935.7102,N,10452.5817,W,24.21,270.06,080820,,,A*44
$GPRMC,030539.000,A,3935.7102,N,10452.5908,W,25.84,269.88,080820,,,A*4A
$GPRMC,030540.000,A,3935.7102,N,10452.6006,W,27.44,270.00,080820,,,A*46
$GPRMC,030541.000,A,3935.7103,N,10452.6109,W,29.02,270.63,080820,,,A*41
$GPRMC,030542.000,A,3935.7104,N,10452.6216,W,29.72,269.97,080820,,,A*4C
$GPRMC,030543.000,A,3935.7102,N,10452.6327,W,30.92,269.60,080820,,,A*46
$GPRMC,030544.000,A,3935.7101,N,10452.6441,W,31.99,270.12,080820,,,A*42
$GPRMC,030545.000,A,3935.7098,N,10452.6557,W,32.06,269.56,080820,,,A*49
$GPRMC,030546.000,A,3935.7098,N,10452.6672,W,32.54,269.59,080820,,,A*46
$GPRMC,030547.000,A,3935.7096,N,10452.6785,W,32.74,269.37,080820,,,A*4A
$GPRMC,030548.000,A,3935.7095,N,10452.6895,W,30.56,269.47,080820,,,A*4D
$GPRMC,030549.000,A,3935.7095,N,10452.7007,W,31.73,269.99,080820,,,A*4B
$GPRMC,030550.000,A,3935.7094,N,10452.7118,W,30.57,269.38,080820,,,A*41
$GPRMC,030551.000,A,3935.7092,N,10452.7228,W,30.78,269.47,080820,,,A*43
$GPRMC,030552.000,A,3935.7092,N,10452.7335,W,29.48,269.74,080820,,,A*46
$GPRMC,030553.000,A,3935.7091,N,10452.7440,W,29.68,269.48,080820,,,A*4C
$GPRMC,030554.000,A,3935.7092,N,10452.7540,W,29.45,270.77,080820,,,A*42
$GPRMC,030555.000,A,3935.7093,N,10452.7632,W,24.78,269.79,080820,,,A*41
$GPRMC,030556.000,A,3935.7093,N,10452.7720,W,23.73,271.34,080820,,,A*4C
$GPRMC,030557.000,A,3935.7095,N,10452.7802,W,21.80,271.66,080820,,,A*4D
$GPRMC,030558.000,A,3935.7096,N,10452.7876,W,19.84,271.77,080820,,,A*4D
$GPRMC,030559.000,A,3935.7097,N,10452.7943,W,17.58,270.83,080820,,,A*4F
$GPRMC,030600.000,A,3935.7097,N,10452.8003,W,16.03,270.20,080820,,,A*44
$GPRMC,030601.000,A,3935.7097,N,10452.8057,W,14.42,270.94,080820,,,A*4C
$GPRMC,030602.000,A,3935.7096,N,10452.8101,W,12.96,269.68,080820,,,A*48
$GPRMC,030603.000,A,3935.7094,N,10452.8139,W,10.44,274.23,080820,,,A*4E
$GPRMC,030604.000,A,3935.7096,N,10452.8170,W,8.20,274.62,080820,,,A*78
$GPRMC,030605.000,A,3935.7098,N,10452.8193,W,5.81,274.76,080820,,,A*79
$GPRMC,030606.000,A,3935.7099,N,10452.8208,W,3.89,276.22,080820,,,A*77
$GPRMC,030607.000,A,3935.7100,N,10452.8216,W,2.35,270.33,080820,,,A*78
$GPRMC,030608.000,A,3935.7102,N,10452.8219,W,0.11,270.33,080820,,,A*7E
$GPRMC,030609.000,A,3935.7102,N,10452.8217,W,0.03,270.33,080820,,,A*72
$GPRMC,030610.000,A,3935.7101,N,10452.8215,W,0.01,270.33,080820,,,A*79
$GPRMC,030611.000,A,3935.7099,N,10452.8214,W,0.01,270.33,080820,,,A*79
$GPRMC,030612.000,A,3935.7099,N,10452.8214,W,0.01,270.33,080820,,,A*7A
$GPRMC,030613.000,A,3935.7099,N,10452.8215,W,0.01,270.33,080820,,,A*7A
$GPRMC,030614.000,A,3935.7099,N,10452.8215,W,0.01,270.33,080820,,,A*7D
$GPRMC,030615.000,A,3935.7099,N,10452.8215,W,0.01,270.33,080820,,,A*7C
$GPRMC,030616.000,A,3935.7099,N,10452.8215,W,0.01,270.33,080820,,,A*7F
$GPRMC,030617.000,A,3935.7098,N,10452.8215,W,0.01,270.33,080820,,,A*7F
$GPRMC,030618.000,A,3935.7098,N,10452.8215,W,0.00,270.33,080820,,,A*71
$GPRMC,030619.000,A,3935.7098,N,10452.8215,W,0.00,270.33,080820,,,A*70
$GPRMC,030620.000,A,3935.7098,N,10452.8215,W,0.01,270.33,080820,,,A*7B
$GPRMC,030621.000,A,3935.7098,N,10452.8215,W,0.02,270.33,080820,,,A*79
$GPRMC,030622.000,A,3935.7097,N,10452.8215,W,0.01,270.33,080820,,,A*76
$GPRMC,030623.000,A,3935.7097,N,10452.8215,W,0.01,270.33,080820,,,A*77
$GPRMC,030624.000,A,3935.7097,N,10452.8215,W,0.00,270.33,080820,,,A*71
$GPRMC,030625.000,A,3935.7097,N,10452.8215,W,0.01,270.33,080820,,,A*71
$GPRMC,030626.000,A,3935.7097,N,10452.8215,W,0.01,270.33,080820,,,A*72
$GPRMC,030627.000,A,3935.7096,N,10452.8215,W,0.01,270.33,080820,,,A*72
$GPRMC,030628.000,A,3935.7096,N,10452.8215,W,0.01,270.33,080820,,,A*7D
$GPRMC,030629.000,A,3935.7096,N,10452.8215,W,0.01,270.33,080820,,,A*7C
$GPRMC,030630.000,A,3935.7097,N,10452.8216,W,0.00,270.33,080820,,,A*77
$GPRMC,030631.000,A,3935.7097,N,10452.8216,W,0.01,270.33,080820,,,A*77
$GPRMC,030632.000,A,3935.7097,N,10452.8215,W,0.01,270.33,080820,,,A*77
$GPRMC,030633.000,A,3935.7096,N,10452.8215,W,0.18,270.33,080820,,,A*7F
$GPRMC,030634.000,A,3935.7096,N,10452.8215,W,0.24,270.33,080820,,,A*77
$GPRMC,030635.000,A,3935.7095,N,10452.8215,W,0.20,270.33,080820,,,A*71
$GPRMC,030636.000,A,3935.7095,N,10452.8216,W,0.14,270.33,080820,,,A*76
$GPRMC,030637.000,A,3935.7095,N,10452.8216,W,0.26,270.33,080820,,,A*76
$GPRMC,030638.000,A,3935.7094,N,10452.8217,W,0.21,270.33,080820,,,A*7E
$GPRMC,030639.000,A,3935.7094,N,10452.8217,W,0.17,270.33,080820,,,A*7A
$GPRMC,030640.000,A,3935.7093,N,10452.8218,W,0.18,270.33,080820,,,A*73
$GPRMC,030641.000,A,3935.7093,N,10452.8218,W,0.19,270.33,080820,,,A*73
$GPRMC,030642.000,A,3935.7092,N,10452.8218,W,0.07,270.33,080820,,,A*7E
$GPRMC,030643.000,A,3935.7092,N,10452.8218,W,0.13,270.33,080820,,,A*7A
$GPRMC,030644.000,A,3935.7092,N,10452.8218,W,0.19,270.33,080820,,,A*77
$GPRMC,030645.000,A,3935.7091,N,10452.8218,W,0.14,270.33,080820,,,A*78
$GPRMC,030646.000,A,3935.7091,N,10452.8218,W,0.12,270.33,080820,,,A*7D
$GPRMC,030647.000,A,3935.7091,N,10452.8218,W,0.06,270.33,080820,,,A*79
$GPRMC,030648.000,A,3935.7091,N,10452.8218,W,0.10,270.33,080820,,,A*71
$GPRMC,030649.000,A,3935.7091,N,10452.8218,W,0.16,270.33,080820,,,A*76
$GPRMC,030650.000,A,3935.7091,N,10452.8217,W,0.15,270.33,080820,,,A*72
$GPRMC,030651.000,A,3935.7091,N,10452.8217,W,0.16,270.33,080820,,,A*70
$GPRMC,030652.000,A,3935.7091,N,10452.8216,W,0.07,270.33,080820,,,A*72
$GPRMC,030653.000,A,3935.7091,N,10452.8216,W,0.11,270.33,080820,,,A*74
$GPRMC,030654.000,A,3935.7091,N,10452.8216,W,0.12,270.33,080820,,,A*70
$GPRMC,030655.000,A,3935.7091,N,10452.8215,W,0.15,270.33,080820,,,A*75
$GPRMC,030656.000,A,3935.7091,N,10452.8215,W,0.12,270.33,080820,,,A*71
$GPRMC,030657.000,A,3935.7091,N,10452.8215,W,0.03,270.33,080820,,,A*70
$GPRMC,030658.000,A,3935.7091,N,10452.8215,W,0.09,270.33,080820,,,A*75
$GPRMC,030659.000,A,3935.7091,N,10452.8215,W,0.05,270.33,080820,,,A*78
$GPRMC,030700.000,A,3935.7091,N,10452.8215,W,0.25,270.33,080820,,,A*77
$GPRMC,030701.000,A,3935.7091,N,10452.8216,W,0.90,270.33,080820,,,A*7B
$GPRMC,030702.000,A,3935.7091,N,10452.8219,W,1.95,276.95,080820,,,A*79
$GPRMC,030703.000,A,3935.7090,N,10452.8236,W,3.61,272.63,080820,,,A*70
$GPRMC,030704.000,A,3935.7087,N,10452.8263,W,8.60,268.34,080820,,,A*72
$GPRMC,030705.000,A,3935.7085,N,10452.8302,W,11.78,269.06,080820,,,A*46
$GPRMC,030706.000,A,3935.7083,N,10452.8351,W,14.34,270.83,080820,,,A*4D
$GPRMC,030707.000,A,3935.7080,N,10452.8416,W,19.03,267.49,080820,,,A*42
$GPRMC,030708.000,A,3935.7078,N,10452.8493,W,22.08,267.75,080820,,,A*4B
$GPRMC,030709.000,A,3935.7078,N,10452.8584,W,24.66,268.49,080820,,,A*43
$GPRMC,030710.000,A,3935.7077,N,10452.8680,W,25.37,267.38,080820,,,A*4F
$GPRMC,030711.000,A,3935.7074,N,10452.8778,W,26.17,265.95,080820,,,A*4F
$GPRMC,030712.000,A,3935.7069,N,10452.8875,W,27.08,266.92,080820,,,A*49
$GPRMC,030713.000,A,3935.7066,N,10452.8979,W,28.20,268.92,080820,,,A*41
$GPRMC,030714.000,A,3935.7065,N,10452.9086,W,29.04,268.56,080820,,,A*42
$GPRMC,030715.000,A,3935.7060,N,10452.9196,W,29.63,266.11,080820,,,A*4A
$GPRMC,030716.000,A,3935.7053,N,10452.9305,W,29.62,264.53,080820,,,A*44
$GPRMC,030717.000,A,3935.7043,N,10452.9411,W,30.11,262.33,080820,,,A*4A
$GPRMC,030718.000,A,3935.7032,N,10452.9517,W,29.74,261.43,080820,,,A*4B
$GPRMC,030719.000,A,3935.7019,N,10452.9624,W,30.16,260.05,080820,,,A*4F
$GPRMC,030720.000,A,3935.7004,N,10452.9732,W,30.38,259.57,080820,,,A*4E
$GPRMC,030721.000,A,3935.6988,N,10452.9840,W,30.46,258.19,080820,,,A*4B
$GPRMC,030722.000,A,3935.6970,N,10452.9948,W,30.05,257.14,080820,,,A*43
$GPRMC,030723.000,A,3935.6953,N,10453.0050,W,30.20,257.28,080820,,,A*43
$GPRMC,030724.000,A,3935.6936,N,10453.0144,W,25.25,257.09,080820,,,A*41
$GPRMC,030725.000,A,3935.6925,N,10453.0230,W,23.73,261.48,080820,,,A*47
$GPRMC,030726.000,A,3935.6919,N,10453.0312,W,22.53,268.21,080820,,,A*4F
$GPRMC,030727.000,A,3935.6921,N,10453.0392,W,22.08,274.52,080820,,,A*4A
$GPRMC,030728.000,A,3935.6932,N,10453.0468,W,21.56,281.77,080820,,,A*40
$GPRMC,030729.000,A,3935.6951,N,10453.0538,W,20.71,289.68,080820,,,A*42
$GPRMC,030730.000,A,3935.6983,N,10453.0605,W,22.06,299.50,080820,,,A*40
$GPRMC,030731.000,A,3935.7029,N,10453.0664,W,22.46,312.38,080820,,,A*46
$GPRMC,030732.000,A,3935.7086,N,10453.0713,W,24.68,323.40,080820,,,A*46
$GPRMC,030733.000,A,3935.7149,N,10453.0763,W,26.43,326.94,080820,,,A*45
$GPRMC,030734.000,A,3935.7215,N,10453.0812,W,28.34,330.18,080820,,,A*4C
$GPRMC,030735.000,A,3935.7288,N,10453.0862,W,29.80,330.35,080820,,,A*4F
$GPRMC,030736.000,A,3935.7365,N,10453.0914,W,31.26,331.06,080820,,,A*4A
$GPRMC,030737.000,A,3935.7445,N,10453.0967,W,32.60,331.93,080820,,,A*47
$GPRMC,030738.000,A,3935.7530,N,10453.1022,W,34.36,331.99,080820,,,A*4D
$GPRMC,030739.000,A,3935.7619,N,10453.1081,W,36.25,331.69,080820,,,A*42
$GPRMC,030740.000,A,3935.7712,N,10453.1144,W,38.08,331.98,080820,,,A*41
$GPRMC,030741.000,A,3935.7811,N,10453.1208,W,39.77,332.79,080820,,,A*42
$GPRMC,030742.000,A,3935.7911,N,10453.1274,W,40.32,332.85,080820,,,A*47
$GPRMC,030743.000,A,3935.8014,N,10453.1340,W,41.05,332.65,080820,,,A*48
$GPRMC,030744.000,A,3935.8120,N,10453.1407,W,41.82,333.08,080820,,,A*48
$GPRMC,030745.000,A,3935.8230,N,10453.1477,W,43.94,333.14,080820,,,A*44
$GPRMC,030746.000,A,3935.8341,N,10453.1548,W,44.67,332.80,080820,,,A*4A
$GPRMC,030747.000,A,3935.8453,N,10453.1622,W,45.10,332.60,080820,,,A*4F
$GPRMC,030748.000,A,3935.8567,N,10453.1696,W,45.64,332.94,080820,,,A*41
$GPRMC,030749.000,A,3935.8680,N,10453.1770,W,46.05,332.18,080820,,,A*43
$GPRMC,030750.000,A,3935.8793,N,10453.1846,W,46.34,332.29,080820,,,A*42
$GPRMC,030751.000,A,3935.8906,N,10453.1921,W,45.93,332.56,080820,,,A*47
$GPRMC,030752.000,A,3935.9022,N,10453.1996,W,46.48,333.36,080820,,,A*44
$GPRMC,030753.000,A,3935.9139,N,10453.2069,W,46.67,334.68,080820,,,A*45
$GPRMC,030754.000,A,3935.9258,N,10453.2141,W,47.43,335.36,080820,,,A*40
$GPRMC,030755.000,A,3935.9380,N,10453.2213,W,48.67,335.34,080820,,,A*4A
$GPRMC,030756.000,A,3935.9505,N,10453.2286,W,49.92,335.56,080820,,,A*41
$GPRMC,030757.000,A,3935.9632,N,10453.2361,W,50.76,335.66,080820,,,A*4E
$GPRMC,030758.000,A,3935.9762,N,10453.2436,W,51.82,335.88,080820,,,A*4A
$GPRMC,030759.000,A,3935.9893,N,10453.2511,W,51.64,335.93,080820,,,A*4C
$GPRMC,030800.000,A,3936.0025,N,10453.2586,W,51.02,335.95,080820,,,A*48
$GPRMC,030801.000,A,3936.0156,N,10453.2660,W,51.90,336.43,080820,,,A*44
$GPRMC,030802.000,A,3936.0286,N,10453.2733,W,51.85,336.14,080820,,,A*48
$GPRMC,030803.000,A,3936.0414,N,10453.2807,W,51.72,335.35,080820,,,A*44
$GPRMC,030804.000,A,3936.0541,N,10453.2884,W,51.58,334.47,080820,,,A*45
$GPRMC,030805.000,A,3936.0669,N,10453.2963,W,51.74,334.64,080820,,,A*4A
$GPRMC,030806.000,A,3936.0801,N,10453.3042,W,52.39,335.07,080820,,,A*4C
$GPRMC,030807.000,A,3936.0935,N,10453.3120,W,52.45,335.73,080820,,,A*46
$GPRMC,030808.000,A,3936.1069,N,10453.3196,W,52.40,336.15,080820,,,A*43
$GPRMC,030809.000,A,3936.1202,N,10453.3271,W,51.95,336.27,080820,,,A*4D
$GPRMC,030810.000,A,3936.1336,N,10453.3346,W,52.67,336.29,080820,,,A*46
$GPRMC,030811.000,A,3936.1471,N,10453.3422,W,52.52,336.04,080820,,,A*4F
$GPRMC,030812.000,A,3936.1609,N,10453.3499,W,53.71,335.77,080820,,,A*46
$GPRMC,030813.000,A,3936.1747,N,10453.3576,W,53.92,336.21,080820,,,A*41
$GPRMC,030814.000,A,3936.1885,N,10453.3654,W,53.89,335.56,080820,,,A*4D
$GPRMC,030815.000,A,3936.2021,N,10453.3735,W,54.12,335.09,080820,,,A*40
$GPRMC,030816.000,A,3936.2156,N,10453.3814,W,54.22,335.94,080820,,,A*49
$GPRMC,030817.000,A,3936.2292,N,10453.3891,W,53.33,335.71,080820,,,A*42
$GPRMC,030818.000,A,3936.2427,N,10453.3969,W,53.36,335.85,080820,,,A*4D
$GPRMC,030819.000,A,3936.2562,N,10453.4047,W,53.34,335.92,080820,,,A*4A
$GPRMC,030820.000,A,3936.2697,N,10453.4126,W,53.76,335.44,080820,,,A*42
$GPRMC,030821.000,A,3936.2833,N,10453.4208,W,54.10,335.66,080820,,,A*4B
$GPRMC,030822.000,A,3936.2969,N,10453.4289,W,53.85,335.79,080820,,,A*4A
$GPRMC,030823.000,A,3936.3106,N,10453.4369,W,54.25,336.17,080820,,,A*42
$GPRMC,030824.000,A,3936.3245,N,10453.4448,W,54.73,336.33,080820,,,A*40
$GPRMC,030825.000,A,3936.3385,N,10453.4528,W,55.14,336.49,080820,,,A*46
$GPRMC,030826.000,A,3936.3525,N,10453.4607,W,54.92,336.12,080820,,,A*46
$GPRMC,030827.000,A,3936.3665,N,10453.4687,W,54.75,335.83,080820,,,A*4A
$GPRMC,030828.000,A,3936.3805,N,10453.4767,W,54.70,335.72,080820,,,A*49
$GPRMC,030829.000,A,3936.3944,N,10453.4848,W,54.92,335.54,080820,,,A*46
$GPRMC,030830.000,A,3936.4083,N,10453.4930,W,54.84,335.42,080820,,,A*45
$GPRMC,030831.000,A,3936.4223,N,10453.5012,W,54.81,335.49,080820,,,A*4A
$GPRMC,030832.000,A,3936.4363,N,10453.5094,W,55.20,335.78,080820,,,A*4A
$GPRMC,030833.000,A,3936.4503,N,10453.5175,W,54.99,335.64,080820,,,A*4B
$GPRMC,030834.000,A,3936.4642,N,10453.5256,W,54.77,335.82,080820,,,A*40
$GPRMC,030835.000,A,3936.4781,N,10453.5337,W,54.98,336.17,080820,,,A*47
$GPRMC,030836.000,A,3936.4920,N,10453.5417,W,54.80,336.07,080820,,,A*4C
$GPRMC,030837.000,A,3936.5059,N,10453.5496,W,54.58,336.35,080820,,,A*46
$GPRMC,030838.000,A,3936.5198,N,10453.5576,W,54.77,336.10,080820,,,A*40
$GPRMC,030839.000,A,3936.5337,N,10453.5656,W,54.49,335.80,080820,,,A*40
$GPRMC,030840.000,A,3936.5475,N,10453.5737,W,54.76,335.95,080820,,,A*41
$GPRMC,030841.000,A,3936.5614,N,10453.5817,W,54.75,335.91,080820,,,A*4F
$GPRMC,030842.000,A,3936.5753,N,10453.5899,W,54.99,335.96,080820,,,A*4D
$GPRMC,030843.000,A,3936.5893,N,10453.5981,W,55.21,335.56,080820,,,A*49
$GPRMC,030844.000,A,3936.6032,N,10453.6064,W,55.14,335.35,080820,,,A*4C
$GPRMC,030845.000,A,3936.6172,N,10453.6148,W,55.14,335.43,080820,,,A*46
$GPRMC,030846.000,A,3936.6312,N,10453.6232,W,55.26,335.01,080820,,,A*48
$GPRMC,030847.000,A,3936.6452,N,10453.6319,W,55.32,334.13,080820,,,A*45
$GPRMC,030848.000,A,3936.6590,N,10453.6407,W,55.11,333.52,080820,,,A*4E
$GPRMC,030849.000,A,3936.6727,N,10453.6493,W,55.18,334.01,080820,,,A*44
$GPRMC,030850.000,A,3936.6864,N,10453.6578,W,53.74,334.68,080820,,,A*43
$GPRMC,030851.000,A,3936.7000,N,10453.6661,W,53.78,334.24,080820,,,A*46
$GPRMC,030852.000,A,3936.7136,N,10453.6747,W,54.42,333.59,080820,,,A*47
$GPRMC,030853.000,A,3936.7273,N,10453.6834,W,54.96,333.78,080820,,,A*45
$GPRMC,030854.000,A,3936.7414,N,10453.6919,W,56.02,335.20,080820,,,A*4F
$GPRMC,030855.000,A,3936.7557,N,10453.7003,W,56.56,335.77,080820,,,A*48
$GPRMC,030856.000,A,3936.7701,N,10453.7085,W,56.38,336.56,080820,,,A*4C
$GPRMC,030857.000,A,3936.7845,N,10453.7166,W,56.80,336.12,080820,,,A*4D
$GPRMC,030858.000,A,3936.7988,N,10453.7248,W,56.99,335.46,080820,,,A*47
$GPRMC,030859.000,A,3936.8132,N,10453.7331,W,56.49,335.47,080820,,,A*43
$GPRMC,030900.000,A,3936.8276,N,10453.7413,W,56.77,335.87,080820,,,A*4B
$GPRMC,030901.000,A,3936.8420,N,10453.7496,W,56.89,335.97,080820,,,A*42
$GPRMC,030902.000,A,3936.8566,N,10453.7579,W,57.48,336.06,080820,,,A*45
$GPRMC,030903.000,A,3936.8713,N,10453.7663,W,57.69,335.94,080820,,,A*47
$GPRMC,030904.000,A,3936.8861,N,10453.7748,W,58.23,335.72,080820,,,A*4B
$GPRMC,030905.000,A,3936.9012,N,10453.7835,W,58.58,335.69,080820,,,A*44
$GPRMC,030906.000,A,3936.9162,N,10453.7923,W,59.31,335.60,080820,,,A*40
$GPRMC,030907.000,A,3936.9314,N,10453.8012,W,59.51,335.73,080820,,,A*42
$GPRMC,030908.000,A,3936.9466,N,10453.8099,W,59.45,336.15,080820,,,A*4A
$GPRMC,030909.000,A,3936.9617,N,10453.8187,W,59.71,335.65,080820,,,A*42
$GPRMC,030910.000,A,3936.9771,N,10453.8275,W,60.36,336.26,080820,,,A*48
$GPRMC,030911.000,A,3936.9926,N,10453.8363,W,60.90,336.12,080820,,,A*48
$GPRMC,030912.000,A,3937.0082,N,10453.8453,W,61.20,336.09,080820,,,A*40
$GPRMC,030913.000,A,3937.0238,N,10453.8541,W,61.53,336.55,080820,,,A*4D
$GPRMC,030914.000,A,3937.0396,N,10453.8629,W,61.90,336.65,080820,,,A*4E
$GPRMC,030915.000,A,3937.0555,N,10453.8718,W,62.47,336.81,080820,,,A*46
$GPRMC,030916.000,A,3937.0715,N,10453.8806,W,62.51,337.08,080820,,,A*44
$GPRMC,030917.000,A,3937.0876,N,10453.8893,W,62.46,337.22,080820,,,A*4D
$GPRMC,030918.000,A,3937.1035,N,10453.8981,W,62.45,336.87,080820,,,A*43
$GPRMC,030919.000,A,3937.1194,N,10453.9070,W,62.17,336.49,080820,,,A*4B
$GPRMC,030920.000,A,3937.1352,N,10453.9159,W,61.96,336.89,080820,,,A*45
$GPRMC,030921.000,A,3937.1511,N,10453.9246,W,61.73,336.96,080820,,,A*4D
$GPRMC,030922.000,A,3937.1668,N,10453.9334,W,61.45,336.33,080820,,,A*4D
$GPRMC,030923.000,A,3937.1825,N,10453.9423,W,61.04,336.07,080820,,,A*48
$GPRMC,030924.000,A,3937.1980,N,10453.9512,W,60.80,336.09,080820,,,A*41
$GPRMC,030925.000,A,3937.2134,N,10453.9602,W,60.85,335.87,080820,,,A*46
$GPRMC,030926.000,A,3937.2287,N,10453.9693,W,60.67,335.72,080820,,,A*40
$GPRMC,030927.000,A,3937.2441,N,10453.9783,W,60.56,335.84,080820,,,A*46
$GPRMC,030928.000,A,3937.2596,N,10453.9872,W,60.62,335.75,080820,,,A*4A
$GPRMC,030929.000,A,3937.2750,N,10453.9962,W,60.67,335.79,080820,,,A*4A
$GPRMC,030930.000,A,3937.2903,N,10454.0051,W,60.56,335.88,080820,,,A*41
$GPRMC,030931.000,A,3937.3055,N,10454.0139,W,60.49,336.06,080820,,,A*4F
$GPRMC,030932.000,A,3937.3206,N,10454.0226,W,59.36,335.93,080820,,,A*48
$GPRMC,030933.000,A,3937.3358,N,10454.0314,W,59.79,336.28,080820,,,A*4B
$GPRMC,030934.000,A,3937.3509,N,10454.0402,W,59.73,335.76,080820,,,A*4C
$GPRMC,030935.000,A,3937.3659,N,10454.0491,W,59.28,335.43,080820,,,A*49
$GPRMC,030936.000,A,3937.3809,N,10454.0578,W,59.32,335.94,080820,,,A*46
$GPRMC,030937.000,A,3937.3960,N,10454.0666,W,59.25,335.66,080820,,,A*4E
$GPRMC,030938.000,A,3937.4111,N,10454.0755,W,59.33,335.62,080820,,,A*4A
$GPRMC,030939.000,A,3937.4263,N,10454.0843,W,59.26,336.15,080820,,,A*42
$GPRMC,030940.000,A,3937.4414,N,10454.0930,W,59.45,336.11,080820,,,A*4E
$GPRMC,030941.000,A,3937.4565,N,10454.1016,W,58.92,336.21,080820,,,A*4C
$GPRMC,030942.000,A,3937.4715,N,10454.1101,W,58.90,336.24,080820,,,A*4A
$GPRMC,030943.000,A,3937.4865,N,10454.1187,W,59.33,335.88,080820,,,A*40
$GPRMC,030944.000,A,3937.5017,N,10454.1273,W,59.10,336.15,080820,,,A*45
$GPRMC,030945.000,A,3937.5169,N,10454.1360,W,59.12,335.84,080820,,,A*46
$GPRMC,030946.000,A,3937.5321,N,10454.1446,W,59.26,336.18,080820,,,A*49
$GPRMC,030947.000,A,3937.5471,N,10454.1532,W,59.25,336.03,080820,,,A*41
$GPRMC,030948.000,A,3937.5621,N,10454.1618,W,58.98,335.86,080820,,,A*4B
$GPRMC,030949.000,A,3937.5768,N,10454.1705,W,58.23,335.80,080820,,,A*4D
$GPRMC,030950.000,A,3937.5915,N,10454.1790,W,57.66,335.64,080820,,,A*49
$GPRMC,030951.000,A,3937.6061,N,10454.1875,W,57.18,335.61,080820,,,A*49
$GPRMC,030952.000,A,3937.6206,N,10454.1958,W,56.71,336.23,080820,,,A*4C
$GPRMC,030953.000,A,3937.6351,N,10454.2040,W,57.02,336.14,080820,,,A*4C
$GPRMC,030954.000,A,3937.6496,N,10454.2123,W,56.61,335.64,080820,,,A*43
$GPRMC,030955.000,A,3937.6642,N,10454.2208,W,56.58,335.89,080820,,,A*4A
$GPRMC,030956.000,A,3937.6787,N,10454.2294,W,56.57,335.66,080820,,,A*4A
$GPRMC,030957.000,A,3937.6932,N,10454.2379,W,56.61,336.13,080820,,,A*4D
$GPRMC,030958.000,A,3937.7078,N,10454.2464,W,56.66,335.88,080820,,,A*49
$GPRMC,030959.000,A,3937.7223,N,10454.2546,W,56.86,336.40,080820,,,A*4C
$GPRMC,031000.000,A,3937.7365,N,10454.2631,W,56.75,335.81,080820,,,A*4A
$GPRMC,031001.000,A,3937.7507,N,10454.2716,W,55.78,335.67,080820,,,A*4B
$GPRMC,031002.000,A,3937.7645,N,10454.2800,W,55.30,335.41,080820,,,A*4D
$GPRMC,031003.000,A,3937.7784,N,10454.2882,W,55.34,335.83,080820,,,A*40
$GPRMC,031004.000,A,3937.7924,N,10454.2964,W,56.01,335.50,080820,,,A*41
$GPRMC,031005.000,A,3937.8066,N,10454.3046,W,56.24,336.41,080820,,,A*4C
$GPRMC,031006.000,A,3937.8210,N,10454.3125,W,56.95,337.71,080820,,,A*40
$GPRMC,031007.000,A,3937.8356,N,10454.3200,W,56.90,338.95,080820,,,A*46
$GPRMC,031008.000,A,3937.8504,N,10454.3271,W,56.97,340.23,080820,,,A*4B
$GPRMC,031009.000,A,3937.8651,N,10454.3340,W,56.98,341.04,080820,,,A*41
$GPRMC,031010.000,A,3937.8801,N,10454.3405,W,57.01,341.84,080820,,,A*4D
$GPRMC,031011.000,A,3937.8953,N,10454.3467,W,56.82,342.36,080820,,,A*4E
$GPRMC,031012.000,A,3937.9108,N,10454.3526,W,56.94,343.35,080820,,,A*4B
$GPRMC,031013.000,A,3937.9263,N,10454.3583,W,57.62,343.65,080820,,,A*46
$GPRMC,031014.000,A,3937.9418,N,10454.3642,W,58.20,343.66,080820,,,A*4F
