$GPRMC,102942.000,A,3941.7997,N,10545.2222,W,53.52,267.92,080820,,,A*41
$GPRMC,102943.000,A,3941.7991,N,10545.2414,W,53.19,267.75,080820,,,A*43
$GPRMC,102944.000,A,3941.7985,N,10545.2606,W,53.69,267.45,080820,,,A*44
$GPRMC,102945.000,A,3941.7978,N,10545.2799,W,53.37,267.30,080820,,,A*49
$GPRMC,102946.000,A,3941.7970,N,10545.2990,W,53.36,267.16,080820,,,A*40
$GPRMC,102947.000,A,3941.7964,N,10545.3178,W,52.32,267.30,080820,,,A*4A
$GPRMC,102948.000,A,3941.7957,N,10545.3365,W,51.84,266.96,080820,,,A*48
$GPRMC,102949.000,A,3941.7946,N,10545.3551,W,52.08,265.23,080820,,,A*42
$GPRMC,102950.000,A,3941.7932,N,10545.3737,W,51.91,264.38,080820,,,A*43
$GPRMC,102951.000,A,3941.7915,N,10545.3923,W,51.89,263.07,080820,,,A*4E
$GPRMC,102952.000,A,3941.7897,N,10545.4108,W,52.11,262.55,080820,,,A*44
$GPRMC,102954.000,A,3941.7854,N,10545.4479,W,52.05,259.95,080820,,,A*4F
$GPRMC,102955.000,A,3941.7827,N,10545.4664,W,52.09,259.19,080820,,,A*4C
$GPRMC,102956.000,A,3941.7798,N,10545.4852,W,52.18,258.54,080820,,,A*47
$GPRMC,102956.000,A,3941.7798,N,10545.4852,W,52.18,258.54,080820,,,A*47
$GPRMC,102958.000,A,3941.7740,N,10545.5230,W,52.33,259.47,080820,,,A*49
$GPRMC,102959.000,A,3941.7713,N,10545.5420,W,52.44,259.49,080820,,,A*47
$GPRMC,103000.000,A,3941.7684,N,10545.5610,W,52.56,259.58,080820,,,A*4E
$GPRMC,103000.000,A,3941.7684,N,10545.5610,W,52.56,259.58,080820,,,A*4E
$GPRMC,103002.000,A,3941.7625,N,10545.5997,W,53.77,259.20,080820,,,A*4A
$GPRMC,103003.000,A,3941.7600,N,10545.6192,W,56.33,260.04,080820,,,A*4B
$GPRMC,103004.000,A,3941.7577,N,10545.6393,W,57.36,261.43,080820,,,A*4A
$GPRMC,103005.000,A,3941.7558,N,10545.6600,W,58.63,264.11,080820,,,A*44
$GPRMC,103006.000,A,3941.7547,N,10545.6811,W,59.13,266.95,080820,,,A*4F
$GPRMC,103007.000,A,3941.7543,N,10545.7024,W,59.20,269.40,080820,,,A*42
$GPRMC,103008.000,A,3941.7548,N,10545.7237,W,59.21,272.84,080820,,,A*45
$GPRMC,103009.000,A,3941.7564,N,10545.7448,W,59.52,276.51,080820,,,A*4C
$GPRMC,103010.000,A,3941.7589,N,10545.7661,W,60.21,279.75,080820,,,A*49
$GPRMC,103011.000,A,3941.7624,N,10545.7871,W,59.85,282.48,080820,,,A*4D
$GPRMC,103012.000,A,3941.7664,N,10545.8080,W,60.33,284.35,080820,,,A*48
$GPRMC,103013.000,A,3941.7707,N,10545.8291,W,60.36,284.03,080820,,,A*4F
$GPRMC,103014.000,A,3941.7747,N,10545.8506,W,61.64,282.86,080820,,,A*48
$GPRMC,103015.000,A,3941.7785,N,10545.8725,W,62.28,281.76,080820,,,A*43
$GPRMC,103016.000,A,3941.7817,N,10545.8949,W,63.00,279.81,080820,,,A*44
$GPRMC,103017.000,A,3941.7843,N,10545.9175,W,63.84,277.49,080820,,,A*44
$GPRMC,103018.000,A,3941.7863,N,10545.9404,W,63.83,276.27,080820,,,A*44
$GPRMC,103019.000,A,3941.7877,N,10545.9629,W,62.31,274.49,080820,,,A*4F
$GPRMC,103020.000,A,3941.7879,N,10545.9848,W,60.19,270.83,080820,,,A*48
$GPRMC,103021.000,A,3941.7868,N,10546.0067,W,59.81,266.85,080820,,,A*4C
$GPRMC,103022.000,A,3941.7846,N,10546.0284,W,59.75,262.96,080820,,,A*41
$GPRMC,103023.000,A,3941.7812,N,10546.0502,W,59.14,259.24,080820,,,A*4E
$GPRMC,103024.000,A,3941.7773,N,10546.0714,W,58.68,256.32,080820,,,A*46
$GPRMC,103025.000,A,3941.7723,N,10546.0920,W,60.07,253.72,080820,,,A*48
$GPRMC,103026.000,A,3941.7663,N,10546.1130,W,59.34,252.41,080820,,,A*4D
$GPRMC,103027.000,A,3941.7605,N,10546.1337,W,58.82,251.91,080820,,,A*4B
$GPRMC,103028.000,A,3941.7549,N,10546.1539,W,58.55,251.99,080820,,,A*45
$GPRMC,103029.000,A,3941.7496,N,10546.1740,W,58.48,252.00,080820,,,A*44
$GPRMC,103030.000,A,3941.7442,N,10546.1940,W,58.50,252.01,080820,,,A*43
$GPRMC,103031.000,A,3941.7391,N,10546.2137,W,56.81,252.01,080820,,,A*42
$GPRMC,103032.000,A,3941.7340,N,10546.2330,W,55.64,251.77,080820,,,A*42
$GPRMC,103033.000,A,3941.7291,N,10546.2519,W,54.60,252.04,080820,,,A*41
$GPRMC,103034.000,A,3941.7244,N,10546.2705,W,54.02,253.35,080820,,,A*46
$GPRMC,103035.000,A,3941.7201,N,10546.2891,W,53.75,254.23,080820,,,A*43
$GPRMC,103036.000,A,3941.7162,N,10546.3078,W,53.77,255.99,080820,,,A*4A
$GPRMC,103037.000,A,3941.7128,N,10546.3266,W,53.24,257.94,080820,,,A*41
$GPRMC,103038.000,A,3941.7098,N,10546.3455,W,53.20,260.20,080820,,,A*4D
$GPRMC,103039.000,A,3941.7076,N,10546.3643,W,53.24,262.56,080820,,,A*4E
$GPRMC,103040.000,A,3941.7060,N,10546.3832,W,53.01,264.84,080820,,,A*41
$GPRMC,103041.000,A,3941.7049,N,10546.4022,W,53.29,266.42,080820,,,A*47
$GPRMC,103042.000,A,3941.7041,N,10546.4214,W,53.56,266.58,080820,,,A*48
$GPRMC,103043.000,A,3941.7034,N,10546.4408,W,53.42,267.48,080820,,,A*45
$GPRMC,103044.000,A,3941.7030,N,10546.4601,W,53.51,268.00,080820,,,A*4C
$GPRMC,103045.000,A,3941.7027,N,10546.4795,W,53.63,268.25,080820,,,A*41
$GPRMC,103046.000,A,3941.7023,N,10546.4992,W,53.78,268.20,080820,,,A*40
$GPRMC,103047.000,A,3941.7019,N,10546.5190,W,55.75,267.79,080820,,,A*4B
$GPRMC,103048.000,A,3941.7013,N,10546.5392,W,56.38,267.22,080820,,,A*4A
$GPRMC,103049.000,A,3941.7006,N,10546.5595,W,56.79,267.15,080820,,,A*4F
$GPRMC,103050.000,A,3941.6999,N,10546.5799,W,56.76,267.41,080820,,,A*49
$GPRMC,103051.000,A,3941.6991,N,10546.6003,W,57.09,267.14,080820,,,A*4E
$GPRMC,103052.000,A,3941.6983,N,10546.6207,W,57.48,266.86,080820,,,A*47
$GPRMC,103053.000,A,3941.6976,N,10546.6412,W,56.97,267.38,080820,,,A*49
$GPRMC,103054.000,A,3941.6969,N,10546.6616,W,56.97,267.30,080820,,,A*4E
$GPRMC,103055.000,A,3941.6963,N,10546.6820,W,56.73,267.85,080820,,,A*4A
$GPRMC,103056.000,A,3941.6957,N,10546.7023,W,56.74,267.98,080820,,,A*4F
$GPRMC,103057.000,A,3941.6948,N,10546.7230,W,56.74,267.59,080820,,,A*4D
$GPRMC,103058.000,A,3941.6941,N,10546.7438,W,57.29,267.54,080820,,,A*41
$GPRMC,103059.000,A,3941.6932,N,10546.7647,W,57.55,266.55,080820,,,A*45
$GPRMC,103100.000,A,3941.6920,N,10546.7857,W,57.74,266.12,080820,,,A*44
$GPRMC,103101.000,A,3941.6909,N,10546.8065,W,57.67,266.73,080820,,,A*4D
$GPRMC,103102.000,A,3941.6898,N,10546.8275,W,57.86,266.82,080820,,,A*45
$GPRMC,103103.000,A,3941.6889,N,10546.8483,W,57.70,266.79,080820,,,A*46
$GPRMC,103104.000,A,3941.6879,N,10546.8692,W,57.88,266.03,080820,,,A*46
$GPRMC,103105.000,A,3941.6868,N,10546.8904,W,57.92,266.14,080820,,,A*4A
$GPRMC,103106.000,A,3941.6855,N,10546.9116,W,59.02,265.42,080820,,,A*4A
$GPRMC,103107.000,A,3941.6840,N,10546.9328,W,59.09,264.63,080820,,,A*49
$GPRMC,103108.000,A,3941.6823,N,10546.9542,W,59.04,264.04,080820,,,A*45
$GPRMC,103109.000,A,3941.6804,N,10546.9756,W,59.69,263.85,080820,,,A*43
$GPRMC,103110.000,A,3941.6786,N,10546.9970,W,59.43,263.99,080820,,,A*41
$GPRMC,103111.000,A,3941.6767,N,10547.0185,W,59.68,263.90,080820,,,A*45
$GPRMC,103112.000,A,3941.6748,N,10547.0398,W,58.73,263.89,080820,,,A*46
$GPRMC,103113.000,A,3941.6729,N,10547.0608,W,59.16,263.59,080820,,,A*43
$GPRMC,103114.000,A,3941.6712,N,10547.0815,W,57.36,264.04,080820,,,A*4D
$GPRMC,103115.000,A,3941.6694,N,10547.1022,W,57.01,263.53,080820,,,A*4F
$GPRMC,103116.000,A,3941.6680,N,10547.1224,W,56.48,264.44,080820,,,A*40
$GPRMC,103117.000,A,3941.6669,N,10547.1427,W,56.42,265.98,080820,,,A*49
$GPRMC,103118.000,A,3941.6662,N,10547.1632,W,56.17,268.84,080820,,,A*4B
$GPRMC,103119.000,A,3941.6662,N,10547.1839,W,55.91,271.12,080820,,,A*45
$GPRMC,103120.000,A,3941.6671,N,10547.2043,W,57.11,273.98,080820,,,A*41
$GPRMC,103121.000,A,3941.6690,N,10547.2246,W,57.28,277.18,080820,,,A*4E
$GPRMC,103122.000,A,3941.6719,N,10547.2448,W,57.91,280.05,080820,,,A*43
$GPRMC,103123.000,A,3941.6757,N,10547.2651,W,58.37,283.41,080820,,,A*42
$GPRMC,103124.000,A,3941.6804,N,10547.2852,W,58.58,286.84,080820,,,A*44
$GPRMC,103125.000,A,3941.6862,N,10547.3046,W,57.82,290.40,080820,,,A*4E
$GPRMC,103126.000,A,3941.6924,N,10547.3238,W,58.05,293.40,080820,,,A*46
$GPRMC,103127.000,A,3941.6991,N,10547.3429,W,58.02,295.56,080820,,,A*49
$GPRMC,103128.000,A,3941.7060,N,10547.3616,W,58.00,296.65,080820,,,A*4F
$GPRMC,103129.000,A,3941.7133,N,10547.3800,W,57.87,297.00,080820,,,A*42
$GPRMC,103130.000,A,3941.7205,N,10547.3984,W,57.80,296.07,080820,,,A*40
$GPRMC,103131.000,A,3941.7275,N,10547.4167,W,57.81,294.72,080820,,,A*45
$GPRMC,103132.000,A,3941.7339,N,10547.4352,W,57.71,292.40,080820,,,A*43
$GPRMC,103133.000,A,3941.7394,N,10547.4542,W,57.63,289.86,080820,,,A*41
$GPRMC,103134.000,A,3941.7442,N,10547.4735,W,57.54,286.77,080820,,,A*4D
$GPRMC,103135.000,A,3941.7483,N,10547.4931,W,56.42,284.05,080820,,,A*4A
$GPRMC,103136.000,A,3941.7517,N,10547.5129,W,56.09,281.15,080820,,,A*4E
$GPRMC,103137.000,A,3941.7544,N,10547.5328,W,56.01,278.82,080820,,,A*4A
$GPRMC,103138.000,A,3941.7564,N,10547.5528,W,56.21,276.68,080820,,,A*49
$GPRMC,103139.000,A,3941.7577,N,10547.5730,W,56.16,274.59,080820,,,A*45
$GPRMC,103140.000,A,3941.7581,N,10547.5931,W,55.52,271.42,080820,,,A*41
$GPRMC,103141.000,A,3941.7573,N,10547.6133,W,56.36,268.37,080820,,,A*4F
$GPRMC,103142.000,A,3941.7556,N,10547.6339,W,57.29,264.95,080820,,,A*48
$GPRMC,103143.000,A,3941.7534,N,10547.6544,W,56.92,262.32,080820,,,A*4B
$GPRMC,103144.000,A,3941.7502,N,10547.6751,W,58.18,258.54,080820,,,A*4A
$GPRMC,103145.000,A,3941.7464,N,10547.6956,W,58.22,256.51,080820,,,A*41
$GPRMC,103146.000,A,3941.7416,N,10547.7160,W,58.06,252.65,080820,,,A*4E
$GPRMC,103147.000,A,3941.7357,N,10547.7363,W,58.98,249.90,080820,,,A*4B
$GPRMC,103148.000,A,3941.7292,N,10547.7564,W,59.69,248.11,080820,,,A*4A
$GPRMC,103149.000,A,3941.7224,N,10547.7765,W,60.08,246.81,080820,,,A*4F
$GPRMC,103150.000,A,3941.7154,N,10547.7966,W,60.06,246.77,080820,,,A*49
$GPRMC,103151.000,A,3941.7083,N,10547.8168,W,60.26,246.61,080820,,,A*4F
$GPRMC,103152.000,A,3941.7013,N,10547.8369,W,60.54,246.64,080820,,,A*46
$GPRMC,103153.000,A,3941.6944,N,10547.8571,W,60.78,246.90,080820,,,A*47
$GPRMC,103154.000,A,3941.6875,N,10547.8772,W,60.78,247.11,080820,,,A*4A
$GPRMC,103155.000,A,3941.6809,N,10547.8974,W,60.34,247.62,080820,,,A*44
$GPRMC,103156.000,A,3941.6741,N,10547.9172,W,59.71,247.25,080820,,,A*43
$GPRMC,103157.000,A,3941.6675,N,10547.9369,W,59.54,246.92,080820,,,A*46
$GPRMC,103158.000,A,3941.6608,N,10547.9567,W,59.48,246.75,080820,,,A*4F
$GPRMC,103159.000,A,3941.6542,N,10547.9763,W,59.41,246.83,080820,,,A*45
$GPRMC,103200.000,A,3941.6476,N,10547.9958,W,59.15,246.76,080820,,,A*41
$GPRMC,103201.000,A,3941.6411,N,10548.0150,W,57.53,247.23,080820,,,A*4A
$GPRMC,103202.000,A,3941.6350,N,10548.0337,W,55.81,247.34,080820,,,A*43
$GPRMC,103203.000,A,3941.6292,N,10548.0518,W,52.67,247.94,080820,,,A*43
$GPRMC,103204.000,A,3941.6239,N,10548.0686,W,48.59,248.94,080820,,,A*48
$GPRMC,103205.000,A,3941.6193,N,10548.0847,W,46.57,250.48,080820,,,A*41
$GPRMC,103206.000,A,3941.6153,N,10548.1003,W,44.94,252.50,080820,,,A*41
$GPRMC,103207.000,A,3941.6120,N,10548.1157,W,43.90,255.88,080820,,,A*45
$GPRMC,103208.000,A,3941.6094,N,10548.1310,W,43.05,258.91,080820,,,A*4C
$GPRMC,103209.000,A,3941.6072,N,10548.1459,W,41.94,259.92,080820,,,A*47
$GPRMC,103210.000,A,3941.6053,N,10548.1606,W,41.25,261.12,080820,,,A*4D
$GPRMC,103211.000,A,3941.6034,N,10548.1751,W,40.43,260.52,080820,,,A*4A
$GPRMC,103212.000,A,3941.6015,N,10548.1892,W,39.55,260.59,080820,,,A*48
$GPRMC,103213.000,A,3941.5998,N,10548.2032,W,39.02,260.91,080820,,,A*41
$GPRMC,103214.000,A,3941.5979,N,10548.2170,W,38.58,259.99,080820,,,A*42
$GPRMC,103215.000,A,3941.5960,N,10548.2307,W,38.04,260.61,080820,,,A*4D
$GPRMC,103216.000,A,3941.5943,N,10548.2440,W,36.50,260.64,080820,,,A*41
$GPRMC,103217.000,A,3941.5926,N,10548.2564,W,33.67,260.40,080820,,,A*43
$GPRMC,103218.000,A,3941.5911,N,10548.2677,W,30.77,260.28,080820,,,A*45
$GPRMC,103219.000,A,3941.5898,N,10548.2780,W,27.74,260.12,080820,,,A*41
$GPRMC,103220.000,A,3941.5886,N,10548.2874,W,25.83,260.35,080820,,,A*4F
$GPRMC,103221.000,A,3941.5874,N,10548.2963,W,24.19,259.85,080820,,,A*47
$GPRMC,103222.000,A,3941.5862,N,10548.3046,W,23.08,258.65,080820,,,A*44
$GPRMC,103223.000,A,3941.5851,N,10548.3122,W,20.87,258.81,080820,,,A*48
$GPRMC,103224.000,A,3941.5839,N,10548.3189,W,18.10,255.05,080820,,,A*44
$GPRMC,103225.000,A,3941.5827,N,10548.3242,W,15.08,251.32,080820,,,A*4A
$GPRMC,103226.000,A,3941.5816,N,10548.3282,W,12.12,246.82,080820,,,A*46
$GPRMC,103227.000,A,3941.5814,N,10548.3296,W,6.76,251.87,080820,,,A*74
$GPRMC,103228.000,A,3941.5812,N,10548.3302,W,3.53,258.63,080820,,,A*70
$GPRMC,103229.000,A,3941.5812,N,10548.3306,W,0.18,258.63,080820,,,A*79
$GPRMC,103230.000,A,3941.5811,N,10548.3305,W,0.04,258.63,080820,,,A*7C
$GPRMC,103231.000,A,3941.5811,N,10548.3301,W,0.03,258.63,080820,,,A*7E
$GPRMC,103232.000,A,3941.5811,N,10548.3295,W,0.03,258.63,080820,,,A*71
$GPRMC,103233.000,A,3941.5812,N,10548.3293,W,0.03,258.63,080820,,,A*75
$GPRMC,103234.000,A,3941.5811,N,10548.3292,W,0.02,258.63,080820,,,A*71
$GPRMC,103235.000,A,3941.5811,N,10548.3292,W,0.01,258.63,080820,,,A*73
$GPRMC,103236.000,A,3941.5811,N,10548.3292,W,0.02,258.63,080820,,,A*73
$GPRMC,103237.000,A,3941.5811,N,10548.3291,W,0.01,258.63,080820,,,A*72
$GPRMC,103238.000,A,3941.5811,N,10548.3291,W,0.09,258.63,080820,,,A*75
$GPRMC,103239.000,A,3941.5809,N,10548.3294,W,0.23,258.63,080820,,,A*70
$GPRMC,103240.000,A,3941.5805,N,10548.3303,W,2.64,234.64,080820,,,A*71
$GPRMC,103241.000,A,3941.5797,N,10548.3312,W,3.25,228.06,080820,,,A*79
$GPRMC,103242.000,A,3941.5783,N,10548.3318,W,5.71,190.78,080820,,,A*7B
$GPRMC,103243.000,A,3941.5752,N,10548.3322,W,11.32,179.30,080820,,,A*46
$GPRMC,103244.000,A,3941.5714,N,10548.3317,W,14.60,167.79,080820,,,A*45
$GPRMC,103245.000,A,3941.5672,N,10548.3304,W,16.05,163.64,080820,,,A*4E
$GPRMC,103246.000,A,3941.5625,N,10548.3287,W,18.09,162.74,080820,,,A*47
$GPRMC,103247.000,A,3941.5571,N,10548.3266,W,19.83,163.16,080820,,,A*4D
$GPRMC,103248.000,A,3941.5514,N,10548.3244,W,20.75,164.30,080820,,,A*41
$GPRMC,103249.000,A,3941.5458,N,10548.3223,W,19.55,165.44,080820,,,A*42
$GPRMC,103250.000,A,3941.5408,N,10548.3207,W,17.44,165.65,080820,,,A*44
$GPRMC,103251.000,A,3941.5361,N,10548.3190,W,16.54,164.10,080820,,,A*43
$GPRMC,103252.000,A,3941.5317,N,10548.3174,W,16.00,163.99,080820,,,A*4C
$GPRMC,103253.000,A,3941.5271,N,10548.3157,W,17.01,163.79,080820,,,A*43
$GPRMC,103254.000,A,3941.5221,N,10548.3138,W,18.39,162.86,080820,,,A*4D
$GPRMC,103255.000,A,3941.5172,N,10548.3118,W,18.01,162.71,080820,,,A*48
$GPRMC,103256.000,A,3941.5129,N,10548.3099,W,15.43,162.72,080820,,,A*45
$GPRMC,103257.000,A,3941.5093,N,10548.3085,W,12.35,163.22,080820,,,A*4B
$GPRMC,103258.000,A,3941.5059,N,10548.3069,W,9.33,162.94,080820,,,A*70
$GPRMC,103259.000,A,3941.5038,N,10548.3060,W,5.77,159.30,080820,,,A*75
$GPRMC,103300.000,A,3941.5023,N,10548.3053,W,3.35,151.43,080820,,,A*7E
$GPRMC,103301.000,A,3941.5016,N,10548.3051,W,2.79,150.54,080820,,,A*75
$GPRMC,103302.000,A,3941.5005,N,10548.3054,W,3.49,155.94,080820,,,A*7A
$GPRMC,103303.000,A,3941.4997,N,10548.3052,W,4.10,159.07,080820,,,A*73
$GPRMC,103304.000,A,3941.4986,N,10548.3048,W,4.59,154.97,080820,,,A*76
$GPRMC,103305.000,A,3941.4974,N,10548.3040,W,5.81,154.79,080820,,,A*76
$GPRMC,103306.000,A,3941.4958,N,10548.3032,W,6.23,154.12,080820,,,A*78
$GPRMC,103307.000,A,3941.4943,N,10548.3023,W,5.97,154.85,080820,,,A*71
$GPRMC,103308.000,A,3941.4929,N,10548.3015,W,5.47,155.63,080820,,,A*73
$GPRMC,103309.000,A,3941.4916,N,10548.3008,W,5.03,161.49,080820,,,A*7D
$GPRMC,103310.000,A,3941.4904,N,10548.3003,W,4.41,164.85,080820,,,A*7F
$GPRMC,103311.000,A,3941.4894,N,10548.2998,W,3.41,163.94,080820,,,A*7C
$GPRMC,103312.000,A,3941.4885,N,10548.2995,W,3.25,173.58,080820,,,A*71
$GPRMC,103313.000,A,3941.4875,N,10548.2994,W,3.46,176.78,080820,,,A*7C
$GPRMC,103314.000,A,3941.4867,N,10548.2993,W,3.03,177.28,080820,,,A*7A
$GPRMC,103315.000,A,3941.4859,N,10548.2993,W,3.07,170.99,080820,,,A*7F
$GPRMC,103316.000,A,3941.4852,N,10548.2992,W,3.04,175.71,080820,,,A*76
$GPRMC,103317.000,A,3941.4843,N,10548.2991,W,3.35,173.01,080820,,,A*77
$GPRMC,103318.000,A,3941.4835,N,10548.2989,W,3.40,166.62,080820,,,A*73
$GPRMC,103319.000,A,3941.4829,N,10548.2987,W,3.07,157.49,080820,,,A*79
$GPRMC,103320.000,A,3941.4822,N,10548.2983,W,3.10,154.07,080820,,,A*73
$GPRMC,103321.000,A,3941.4815,N,10548.2979,W,3.47,155.45,080820,,,A*76
$GPRMC,103322.000,A,3941.4806,N,10548.2975,W,3.49,161.17,080820,,,A*75
$GPRMC,103323.000,A,3941.4795,N,10548.2973,W,4.02,165.96,080820,,,A*72
$GPRMC,103324.000,A,3941.4782,N,10548.2971,W,5.25,169.07,080820,,,A*71
$GPRMC,103325.000,A,3941.4766,N,10548.2968,W,6.12,167.41,080820,,,A*79
$GPRMC,103326.000,A,3941.4750,N,10548.2963,W,6.29,165.89,080820,,,A*7A
$GPRMC,103327.000,A,3941.4735,N,10548.2959,W,5.37,166.85,080820,,,A*72
$GPRMC,103328.000,A,3941.4722,N,10548.2955,W,4.64,164.57,080820,,,A*7D
$GPRMC,103329.000,A,3941.4712,N,10548.2949,W,4.04,152.61,080820,,,A*74
$GPRMC,103330.000,A,3941.4705,N,10548.2939,W,4.11,145.80,080820,,,A*70
$GPRMC,103331.000,A,3941.4695,N,10548.2928,W,4.12,136.82,080820,,,A*7C
$GPRMC,103332.000,A,3941.4687,N,10548.2914,W,3.71,125.98,080820,,,A*78
$GPRMC,103333.000,A,3941.4682,N,10548.2900,W,3.73,118.00,080820,,,A*74
$GPRMC,103334.000,A,3941.4678,N,10548.2884,W,4.06,106.57,080820,,,A*73
$GPRMC,103335.000,A,3941.4678,N,10548.2870,W,3.65,85.96,080820,,,A*4C
$GPRMC,103336.000,A,3941.4679,N,10548.2855,W,3.71,86.74,080820,,,A*43
$GPRMC,103337.000,A,3941.4681,N,10548.2841,W,3.68,85.41,080820,,,A*4D
$GPRMC,103338.000,A,3941.4683,N,10548.2828,W,3.63,88.84,080820,,,A*40
$GPRMC,103339.000,A,3941.4684,N,10548.2816,W,2.58,88.66,080820,,,A*4E
$GPRMC,103340.000,A,3941.4684,N,10548.2810,W,0.08,88.66,080820,,,A*41
$GPRMC,103341.000,A,3941.4681,N,10548.2811,W,0.05,88.66,080820,,,A*49
$GPRMC,103342.000,A,3941.4682,N,10548.2812,W,0.05,88.66,080820,,,A*4A
$GPRMC,103343.000,A,3941.4686,N,10548.2814,W,0.04,88.66,080820,,,A*48
$GPRMC,103344.000,A,3941.4685,N,10548.2815,W,0.04,88.66,080820,,,A*4D
$GPRMC,103345.000,A,3941.4684,N,10548.2815,W,0.03,88.66,080820,,,A*4A
$GPRMC,103346.000,A,3941.4684,N,10548.2816,W,0.02,88.66,080820,,,A*4B
$GPRMC,103347.000,A,3941.4683,N,10548.2816,W,0.02,88.66,080820,,,A*4D
$GPRMC,103348.000,A,3941.4683,N,10548.2816,W,0.01,88.66,080820,,,A*41
$GPRMC,103349.000,A,3941.4682,N,10548.2816,W,0.02,88.66,080820,,,A*42
$GPRMC,103350.000,A,3941.4682,N,10548.2817,W,0.03,88.66,080820,,,A*4A
$GPRMC,103351.000,A,3941.4682,N,10548.2818,W,0.04,88.66,080820,,,A*43
$GPRMC,103352.000,A,3941.4682,N,10548.2819,W,0.02,88.66,080820,,,A*47
$GPRMC,103353.000,A,3941.4682,N,10548.2819,W,0.02,88.66,080820,,,A*46
$GPRMC,103354.000,A,3941.4682,N,10548.2820,W,0.01,88.66,080820,,,A*48
$GPRMC,103355.000,A,3941.4682,N,10548.2820,W,0.01,88.66,080820,,,A*49
$GPRMC,103356.000,A,3941.4682,N,10548.2821,W,0.01,88.66,080820,,,A*4B
$GPRMC,103357.000,A,3941.4682,N,10548.2820,W,0.04,88.66,080820,,,A*4E
$GPRMC,103358.000,A,3941.4682,N,10548.2819,W,0.92,88.66,080820,,,A*44
$GPRMC,103359.000,A,3941.4682,N,10548.2815,W,1.75,88.66,080820,,,A*41
$GPRMC,103400.000,A,3941.4683,N,10548.2809,W,2.22,86.66,080820,,,A*49
$GPRMC,103401.000,A,3941.4682,N,10548.2799,W,2.25,88.49,080820,,,A*4B
$GPRMC,103402.000,A,3941.4686,N,10548.2783,W,2.62,71.20,080820,,,A*4D
$GPRMC,103403.000,A,3941.4693,N,10548.2770,W,2.38,51.90,080820,,,A*42
$GPRMC,103404.000,A,3941.4701,N,10548.2761,W,2.36,41.93,080820,,,A*43
$GPRMC,103405.000,A,3941.4710,N,10548.2757,W,2.34,27.99,080820,,,A*4F
$GPRMC,103406.000,A,3941.4716,N,10548.2754,W,2.30,7.30,080820,,,A*7C
$GPRMC,103407.000,A,3941.4723,N,10548.2754,W,1.97,351.40,080820,,,A*72
$GPRMC,103408.000,A,3941.4729,N,10548.2755,W,2.00,346.02,080820,,,A*7B
$GPRMC,103409.000,A,3941.4736,N,10548.2757,W,1.66,337.96,080820,,,A*7E
$GPRMC,103410.000,A,3941.4740,N,10548.2759,W,0.80,320.31,080820,,,A*7B
$GPRMC,103411.000,A,3941.4746,N,10548.2763,W,1.52,329.19,080820,,,A*78
$GPRMC,103412.000,A,3941.4752,N,10548.2766,W,1.68,332.29,080820,,,A*7B
$GPRMC,103413.000,A,3941.4760,N,10548.2765,W,2.03,348.42,080820,,,A*76
$GPRMC,103414.000,A,3941.4767,N,10548.2764,W,2.10,358.18,080820,,,A*7B
$GPRMC,103415.000,A,3941.4776,N,10548.2764,W,2.27,5.61,080820,,,A*7B
$GPRMC,103416.000,A,3941.4784,N,10548.2763,W,2.31,7.34,080820,,,A*77
$GPRMC,103417.000,A,3941.4794,N,10548.2761,W,2.58,9.43,080820,,,A*74
$GPRMC,103418.000,A,3941.4803,N,10548.2758,W,2.74,12.50,080820,,,A*46
$GPRMC,103419.000,A,3941.4813,N,10548.2756,W,3.50,9.04,080820,,,A*74
$GPRMC,103420.000,A,3941.4824,N,10548.2755,W,3.46,359.29,080820,,,A*77
$GPRMC,103421.000,A,3941.4834,N,10548.2757,W,3.84,349.77,080820,,,A*71
$GPRMC,103422.000,A,3941.4844,N,10548.2762,W,3.83,335.13,080820,,,A*7D
$GPRMC,103423.000,A,3941.4853,N,10548.2771,W,4.14,320.32,080820,,,A*76
$GPRMC,103424.000,A,3941.4861,N,10548.2782,W,4.21,311.09,080820,,,A*70
$GPRMC,103425.000,A,3941.4867,N,10548.2795,W,4.36,299.02,080820,,,A*7D
$GPRMC,103426.000,A,3941.4871,N,10548.2808,W,3.65,290.05,080820,,,A*7D
$GPRMC,103427.000,A,3941.4874,N,10548.2819,W,3.04,280.67,080820,,,A*7B
$GPRMC,103428.000,A,3941.4875,N,10548.2830,W,2.64,277.79,080820,,,A*7E
$GPRMC,103429.000,A,3941.4876,N,10548.2839,W,2.31,273.30,080820,,,A*7C
$GPRMC,103430.000,A,3941.4876,N,10548.2847,W,2.09,259.39,080820,,,A*77
$GPRMC,103431.000,A,3941.4875,N,10548.2855,W,2.15,262.96,080820,,,A*76
$GPRMC,103432.000,A,3941.4874,N,10548.2863,W,2.32,264.63,080820,,,A*78
$GPRMC,103433.000,A,3941.4874,N,10548.2868,W,0.81,256.11,080820,,,A*7C
$GPRMC,103434.000,A,3941.4875,N,10548.2867,W,0.30,256.11,080820,,,A*7F
$GPRMC,103435.000,A,3941.4874,N,10548.2867,W,0.14,256.11,080820,,,A*79
$GPRMC,103436.000,A,3941.4871,N,10548.2866,W,0.09,256.11,080820,,,A*72
$GPRMC,103437.000,A,3941.4870,N,10548.2865,W,0.13,256.11,080820,,,A*7A
$GPRMC,103438.000,A,3941.4870,N,10548.2865,W,0.27,256.11,080820,,,A*72
$GPRMC,103439.000,A,3941.4870,N,10548.2864,W,0.07,256.11,080820,,,A*70
$GPRMC,103440.000,A,3941.4870,N,10548.2864,W,0.24,256.11,080820,,,A*7F
$GPRMC,103441.000,A,3941.4870,N,10548.2865,W,0.98,279.16,080820,,,A*72
$GPRMC,103442.000,A,3941.4870,N,10548.2872,W,1.50,279.74,080820,,,A*76
$GPRMC,103443.000,A,3941.4872,N,10548.2880,W,1.71,279.42,080820,,,A*7E
$GPRMC,103444.000,A,3941.4874,N,10548.2889,W,1.71,278.43,080820,,,A*76
$GPRMC,103445.000,A,3941.4875,N,10548.2894,W,1.26,277.33,080820,,,A*70
$GPRMC,103446.000,A,3941.4874,N,10548.2896,W,0.77,262.40,080820,,,A*75
$GPRMC,103447.000,A,3941.4873,N,10548.2898,W,0.57,262.40,080820,,,A*7F
$GPRMC,103448.000,A,3941.4872,N,10548.2900,W,0.52,262.40,080820,,,A*74
$GPRMC,103449.000,A,3941.4872,N,10548.2902,W,0.49,262.40,080820,,,A*7D
$GPRMC,103450.000,A,3941.4873,N,10548.2902,W,0.45,262.40,080820,,,A*78
$GPRMC,103451.000,A,3941.4872,N,10548.2903,W,0.27,262.40,080820,,,A*7D
$GPRMC,103452.000,A,3941.4872,N,10548.2904,W,0.16,262.40,080820,,,A*7B
$GPRMC,103453.000,A,3941.4872,N,10548.2905,W,0.12,262.40,080820,,,A*7F
$GPRMC,103454.000,A,3941.4872,N,10548.2905,W,0.16,262.40,080820,,,A*7C
$GPRMC,103455.000,A,3941.4872,N,10548.2905,W,0.15,262.40,080820,,,A*7E
$GPRMC,103456.000,A,3941.4873,N,10548.2905,W,0.15,262.40,080820,,,A*7C
$GPRMC,103457.000,A,3941.4873,N,10548.2905,W,0.20,262.40,080820,,,A*7B
$GPRMC,103458.000,A,3941.4874,N,10548.2905,W,0.25,262.40,080820,,,A*76
$GPRMC,103459.000,A,3941.4874,N,10548.2905,W,0.46,262.40,080820,,,A*72
$GPRMC,103500.000,A,3941.4875,N,10548.2907,W,0.98,274.78,080820,,,A*73
$GPRMC,103501.000,A,3941.4870,N,10548.2920,W,1.99,258.27,080820,,,A*76
$GPRMC,103502.000,A,3941.4862,N,10548.2932,W,2.83,242.60,080820,,,A*75
$GPRMC,103503.000,A,3941.4855,N,10548.2941,W,4.61,218.80,080820,,,A*7F
$GPRMC,103504.000,A,3941.4849,N,10548.2953,W,5.50,198.91,080820,,,A*7E
$GPRMC,103505.000,A,3941.4830,N,10548.2956,W,6.94,182.99,080820,,,A*7C
$GPRMC,103506.000,A,3941.4805,N,10548.2956,W,8.07,170.49,080820,,,A*7D
$GPRMC,103507.000,A,3941.4780,N,10548.2951,W,8.36,163.64,080820,,,A*76
$GPRMC,103508.000,A,3941.4761,N,10548.2944,W,7.63,158.57,080820,,,A*75
$GPRMC,103509.000,A,3941.4741,N,10548.2935,W,7.66,162.00,080820,,,A*7E
$GPRMC,103510.000,A,3941.4722,N,10548.2927,W,7.20,159.30,080820,,,A*79
$GPRMC,103511.000,A,3941.4702,N,10548.2918,W,6.69,162.71,080820,,,A*77
$GPRMC,103512.000,A,3941.4683,N,10548.2909,W,6.41,162.18,080820,,,A*79
$GPRMC,103513.000,A,3941.4668,N,10548.2901,W,6.01,162.73,080820,,,A*7C
$GPRMC,103514.000,A,3941.4652,N,10548.2892,W,6.01,157.75,080820,,,A*79
$GPRMC,103515.000,A,3941.4638,N,10548.2883,W,5.09,153.94,080820,,,A*74
$GPRMC,103516.000,A,3941.4625,N,10548.2874,W,5.11,147.75,080820,,,A*70
$GPRMC,103517.000,A,3941.4614,N,10548.2866,W,4.61,152.92,080820,,,A*7B
$GPRMC,103518.000,A,3941.4604,N,10548.2857,W,4.15,150.42,080820,,,A*7B
$GPRMC,103519.000,A,3941.4595,N,10548.2849,W,3.96,140.04,080820,,,A*71
$GPRMC,103520.000,A,3941.4587,N,10548.2837,W,4.35,132.26,080820,,,A*7A
$GPRMC,103521.000,A,3941.4580,N,10548.2823,W,4.89,122.70,080820,,,A*7C
$GPRMC,103522.000,A,3941.4572,N,10548.2809,W,4.84,123.11,080820,,,A*71
$GPRMC,103523.000,A,3941.4566,N,10548.2792,W,5.21,116.55,080820,,,A*70
$GPRMC,103524.000,A,3941.4562,N,10548.2776,W,4.72,109.06,080820,,,A*76
$GPRMC,103525.000,A,3941.4562,N,10548.2762,W,3.88,97.47,080820,,,A*43
$GPRMC,103526.000,A,3941.4561,N,10548.2750,W,3.68,94.81,080820,,,A*45
$GPRMC,103527.000,A,3941.4560,N,10548.2737,W,3.63,96.04,080820,,,A*40
$GPRMC,103528.000,A,3941.4564,N,10548.2726,W,3.40,73.67,080820,,,A*44
$GPRMC,103529.000,A,3941.4563,N,10548.2714,W,3.33,87.63,080820,,,A*48
$GPRMC,103530.000,A,3941.4564,N,10548.2703,W,3.14,90.68,080820,,,A*49
$GPRMC,103531.000,A,3941.4563,N,10548.2690,W,4.15,83.19,080820,,,A*46
$GPRMC,103532.000,A,3941.4564,N,10548.2675,W,4.38,80.58,080820,,,A*40
$GPRMC,103533.000,A,3941.4568,N,10548.2654,W,6.19,80.35,080820,,,A*44
$GPRMC,103534.000,A,3941.4574,N,10548.2630,W,7.25,75.62,080820,,,A*4A
$GPRMC,103535.000,A,3941.4582,N,10548.2604,W,7.65,75.66,080820,,,A*45
$GPRMC,103536.000,A,3941.4586,N,10548.2573,W,7.71,74.22,080820,,,A*45
$GPRMC,103537.000,A,3941.4590,N,10548.2543,W,7.41,79.23,080820,,,A*4F
$GPRMC,103538.000,A,3941.4593,N,10548.2517,W,6.50,81.82,080820,,,A*4F
$GPRMC,103539.000,A,3941.4596,N,10548.2493,W,6.67,83.14,080820,,,A*4F
$GPRMC,103540.000,A,3941.4598,N,10548.2470,W,6.65,80.51,080820,,,A*42
$GPRMC,103541.000,A,3941.4601,N,10548.2443,W,6.60,79.08,080820,,,A*4F
$GPRMC,103542.000,A,3941.4607,N,10548.2416,W,6.97,73.22,080820,,,A*40
$GPRMC,103543.000,A,3941.4611,N,10548.2388,W,7.33,80.19,080820,,,A*4D
$GPRMC,103544.000,A,3941.4612,N,10548.2359,W,7.81,86.91,080820,,,A*4A
$GPRMC,103545.000,A,3941.4614,N,10548.2329,W,7.52,86.25,080820,,,A*4B
$GPRMC,103546.000,A,3941.4617,N,10548.2301,W,7.04,81.56,080820,,,A*41
$GPRMC,103547.000,A,3941.4622,N,10548.2274,W,7.06,77.68,080820,,,A*43
$GPRMC,103548.000,A,3941.4627,N,10548.2247,W,6.81,81.38,080820,,,A*4B
$GPRMC,103549.000,A,3941.4632,N,10548.2221,W,6.80,80.00,080820,,,A*45
$GPRMC,103550.000,A,3941.4635,N,10548.2198,W,6.49,85.83,080820,,,A*40
$GPRMC,103551.000,A,3941.4635,N,10548.2176,W,5.96,91.20,080820,,,A*4C
$GPRMC,103552.000,A,3941.4633,N,10548.2155,W,5.68,98.02,080820,,,A*40
$GPRMC,103553.000,A,3941.4630,N,10548.2136,W,5.43,100.91,080820,,,A*74
$GPRMC,103554.000,A,3941.4629,N,10548.2118,W,5.50,91.50,080820,,,A*41
$GPRMC,103555.000,A,3941.4633,N,10548.2097,W,6.23,81.09,080820,,,A*47
$GPRMC,103556.000,A,3941.4635,N,10548.2071,W,6.95,80.12,080820,,,A*4C
$GPRMC,103557.000,A,3941.4640,N,10548.2042,W,7.66,80.30,080820,,,A*42
$GPRMC,103558.000,A,3941.4644,N,10548.2012,W,8.17,78.42,080820,,,A*47
$GPRMC,103559.000,A,3941.4652,N,10548.1982,W,8.72,73.43,080820,,,A*4B
$GPRMC,103600.000,A,3941.4659,N,10548.1952,W,8.28,73.63,080820,,,A*4F
$GPRMC,103601.000,A,3941.4667,N,10548.1922,W,7.60,70.84,080820,,,A*4D
$GPRMC,103602.000,A,3941.4673,N,10548.1896,W,6.65,69.60,080820,,,A*43
$GPRMC,103603.000,A,3941.4677,N,10548.1873,W,6.16,78.63,080820,,,A*4A
$GPRMC,103604.000,A,3941.4680,N,10548.1851,W,5.26,86.42,080820,,,A*47
$GPRMC,103605.000,A,3941.4680,N,10548.1831,W,5.30,90.00,080820,,,A*46
$GPRMC,103606.000,A,3941.4670,N,10548.1806,W,5.33,82.67,080820,,,A*4F
$GPRMC,103607.000,A,3941.4674,N,10548.1783,W,4.61,86.16,080820,,,A*4C
$GPRMC,103608.000,A,3941.4676,N,10548.1764,W,3.97,93.94,080820,,,A*48
$GPRMC,103609.000,A,3941.4678,N,10548.1748,W,3.50,102.33,080820,,,A*76
$GPRMC,103610.000,A,3941.4676,N,10548.1735,W,3.45,93.74,080820,,,A*44
$GPRMC,103611.000,A,3941.4670,N,10548.1722,W,3.96,106.02,080820,,,A*77
$GPRMC,103612.000,A,3941.4665,N,10548.1708,W,3.93,110.21,080820,,,A*7B
$GPRMC,103613.000,A,3941.4663,N,10548.1695,W,3.49,107.58,080820,,,A*76
$GPRMC,103614.000,A,3941.4659,N,10548.1684,W,3.21,116.45,080820,,,A*7A
$GPRMC,103615.000,A,3941.4656,N,10548.1672,W,3.27,104.52,080820,,,A*7E
$GPRMC,103616.000,A,3941.4654,N,10548.1659,W,3.34,97.77,080820,,,A*48
$GPRMC,103617.000,A,3941.4652,N,10548.1645,W,3.81,96.26,080820,,,A*49
$GPRMC,103618.000,A,3941.4648,N,10548.1630,W,3.89,100.22,080820,,,A*7D
$GPRMC,103619.000,A,3941.4644,N,10548.1613,W,4.76,104.21,080820,,,A*71
$GPRMC,103620.000,A,3941.4631,N,10548.1597,W,5.08,114.49,080820,,,A*71
$GPRMC,103621.000,A,3941.4621,N,10548.1579,W,5.14,117.95,080820,,,A*7E
$GPRMC,103622.000,A,3941.4615,N,10548.1560,W,4.66,112.25,080820,,,A*78
$GPRMC,103623.000,A,3941.4608,N,10548.1547,W,4.19,113.34,080820,,,A*79
$GPRMC,103624.000,A,3941.4607,N,10548.1535,W,3.22,102.51,080820,,,A*78
$GPRMC,103625.000,A,3941.4606,N,10548.1525,W,2.33,104.92,080820,,,A*71
$GPRMC,103626.000,A,3941.4603,N,10548.1517,W,2.25,114.58,080820,,,A*76
$GPRMC,103627.000,A,3941.4600,N,10548.1508,W,2.55,116.24,080820,,,A*74
$GPRMC,103628.000,A,3941.4594,N,10548.1497,W,3.75,121.36,080820,,,A*76
$GPRMC,103629.000,A,3941.4591,N,10548.1483,W,4.61,122.55,080820,,,A*73
$GPRMC,103630.000,A,3941.4583,N,10548.1469,W,4.38,123.86,080820,,,A*7F
$GPRMC,103631.000,A,3941.4573,N,10548.1455,W,4.93,127.98,080820,,,A*74
$GPRMC,103632.000,A,3941.4562,N,10548.1438,W,5.38,125.56,080820,,,A*7C
$GPRMC,103633.000,A,3941.4554,N,10548.1419,W,6.01,126.03,080820,,,A*71
$GPRMC,103634.000,A,3941.4539,N,10548.1397,W,6.97,132.10,080820,,,A*74
$GPRMC,103635.000,A,3941.4521,N,10548.1377,W,7.13,135.84,080820,,,A*75
$GPRMC,103636.000,A,3941.4506,N,10548.1360,W,6.61,139.44,080820,,,A*71
$GPRMC,103637.000,A,3941.4481,N,10548.1336,W,6.37,140.79,080820,,,A*7E
$GPRMC,103638.000,A,3941.4486,N,10548.1320,W,5.97,148.05,080820,,,A*7B
$GPRMC,103639.000,A,3941.4473,N,10548.1311,W,5.12,155.90,080820,,,A*7F
$GPRMC,103640.000,A,3941.4460,N,10548.1304,W,4.15,156.40,080820,,,A*7F
$GPRMC,103641.000,A,3941.4439,N,10548.1299,W,3.49,168.21,080820,,,A*73
$GPRMC,103642.000,A,3941.4422,N,10548.1303,W,3.93,195.16,080820,,,A*79
$GPRMC,103643.000,A,3941.4410,N,10548.1308,W,3.59,204.30,080820,,,A*7B
$GPRMC,103644.000,A,3941.4399,N,10548.1313,W,3.40,202.74,080820,,,A*7E
$GPRMC,103645.000,A,3941.4384,N,10548.1321,W,3.79,205.01,080820,,,A*7D
$GPRMC,103646.000,A,3941.4375,N,10548.1326,W,3.32,217.28,080820,,,A*70
$GPRMC,103647.000,A,3941.4368,N,10548.1335,W,3.36,226.03,080820,,,A*70
$GPRMC,103648.000,A,3941.4360,N,10548.1344,W,3.71,233.15,080820,,,A*71
$GPRMC,103649.000,A,3941.4352,N,10548.1352,W,3.66,220.45,080820,,,A*77
$GPRMC,103650.000,A,3941.4342,N,10548.1362,W,4.01,228.47,080820,,,A*71
$GPRMC,103651.000,A,3941.4334,N,10548.1373,W,4.20,221.09,080820,,,A*71
$GPRMC,103652.000,A,3941.4325,N,10548.1386,W,4.66,222.41,080820,,,A*75
$GPRMC,103653.000,A,3941.4316,N,10548.1395,W,4.15,220.85,080820,,,A*78
$GPRMC,103654.000,A,3941.4307,N,10548.1406,W,4.12,233.30,080820,,,A*79
$GPRMC,103655.000,A,3941.4300,N,10548.1419,W,4.29,239.31,080820,,,A*72
$GPRMC,103656.000,A,3941.4290,N,10548.1433,W,4.55,242.92,080820,,,A*7F
$GPRMC,103657.000,A,3941.4283,N,10548.1447,W,4.51,242.88,080820,,,A*70
$GPRMC,103658.000,A,3941.4274,N,10548.1464,W,4.31,252.19,080820,,,A*79
$GPRMC,103659.000,A,3941.4269,N,10548.1482,W,5.31,248.69,080820,,,A*71
$GPRMC,103700.000,A,3941.4264,N,10548.1502,W,5.66,252.59,080820,,,A*72
$GPRMC,103701.000,A,3941.4256,N,10548.1522,W,5.47,255.12,080820,,,A*7B
$GPRMC,103702.000,A,3941.4254,N,10548.1540,W,4.90,262.32,080820,,,A*73
$GPRMC,103703.000,A,3941.4250,N,10548.1557,W,4.34,260.59,080820,,,A*71
$GPRMC,103704.000,A,3941.4246,N,10548.1572,W,4.12,256.61,080820,,,A*7C
$GPRMC,103705.000,A,3941.4240,N,10548.1589,W,4.94,253.92,080820,,,A*78
$GPRMC,103706.000,A,3941.4229,N,10548.1614,W,5.50,247.92,080820,,,A*7F
$GPRMC,103707.000,A,3941.4220,N,10548.1634,W,5.79,241.97,080820,,,A*7D
$GPRMC,103708.000,A,3941.4206,N,10548.1663,W,5.29,246.74,080820,,,A*7B
$GPRMC,103709.000,A,3941.4192,N,10548.1686,W,4.91,238.33,080820,,,A*77
$GPRMC,103710.000,A,3941.4179,N,10548.1706,W,4.62,233.58,080820,,,A*79
$GPRMC,103711.000,A,3941.4165,N,10548.1729,W,4.16,222.34,080820,,,A*71
$GPRMC,103712.000,A,3941.4156,N,10548.1745,W,2.99,218.46,080820,,,A*75
$GPRMC,103713.000,A,3941.4147,N,10548.1756,W,2.49,203.58,080820,,,A*7E
$GPRMC,103714.000,A,3941.4136,N,10548.1765,W,2.10,221.69,080820,,,A*71
$GPRMC,103715.000,A,3941.4128,N,10548.1772,W,2.79,210.23,080820,,,A*7A
$GPRMC,103716.000,A,3941.4120,N,10548.1779,W,3.14,207.42,080820,,,A*71
$GPRMC,103717.000,A,3941.4113,N,10548.1784,W,2.57,214.29,080820,,,A*7B
$GPRMC,103718.000,A,3941.4106,N,10548.1790,W,2.59,215.72,080820,,,A*74
$GPRMC,103719.000,A,3941.4100,N,10548.1795,W,2.64,216.11,080820,,,A*7E
$GPRMC,103720.000,A,3941.4091,N,10548.1800,W,3.59,205.03,080820,,,A*70
$GPRMC,103721.000,A,3941.4084,N,10548.1805,W,2.71,210.93,080820,,,A*76
$GPRMC,103722.000,A,3941.4080,N,10548.1811,W,2.15,221.88,080820,,,A*7E
$GPRMC,103723.000,A,3941.4073,N,10548.1816,W,1.36,221.88,080820,,,A*76
$GPRMC,103724.000,A,3941.4070,N,10548.1821,W,1.83,221.88,080820,,,A*78
$GPRMC,103725.000,A,3941.4066,N,10548.1826,W,1.82,221.88,080820,,,A*78
$GPRMC,103726.000,A,3941.4063,N,10548.1832,W,2.14,228.41,080820,,,A*7B
$GPRMC,103727.000,A,3941.4059,N,10548.1837,W,2.09,225.18,080820,,,A*7B
$GPRMC,103728.000,A,3941.4055,N,10548.1841,W,1.62,225.18,080820,,,A*77
$GPRMC,103729.000,A,3941.4051,N,10548.1844,W,1.35,225.18,080820,,,A*75
$GPRMC,103730.000,A,3941.4048,N,10548.1846,W,1.50,225.18,080820,,,A*74
$GPRMC,103731.000,A,3941.4044,N,10548.1851,W,1.86,225.18,080820,,,A*74
$GPRMC,103732.000,A,3941.4040,N,10548.1856,W,2.30,227.06,080820,,,A*77
$GPRMC,103733.000,A,3941.4039,N,10548.1860,W,0.90,233.05,080820,,,A*73
$GPRMC,103734.000,A,3941.4040,N,10548.1862,W,0.31,233.05,080820,,,A*73
$GPRMC,103735.000,A,3941.4041,N,10548.1862,W,0.61,15.26,080820,,,A*41
$GPRMC,103736.000,A,3941.4040,N,10548.1862,W,0.23,15.26,080820,,,A*45
$GPRMC,103737.000,A,3941.4038,N,10548.1862,W,0.19,15.26,080820,,,A*42
$GPRMC,103738.000,A,3941.4037,N,10548.1863,W,0.19,15.26,080820,,,A*43
$GPRMC,103739.000,A,3941.4036,N,10548.1861,W,0.12,15.26,080820,,,A*4A
$GPRMC,103740.000,A,3941.4036,N,10548.1861,W,0.47,15.26,080820,,,A*44
$GPRMC,103741.000,A,3941.4035,N,10548.1863,W,0.85,265.10,080820,,,A*7A
$GPRMC,103742.000,A,3941.4032,N,10548.1877,W,2.76,253.57,080820,,,A*73
$GPRMC,103743.000,A,3941.4028,N,10548.1889,W,3.56,250.39,080820,,,A*70
$GPRMC,103744.000,A,3941.4016,N,10548.1906,W,3.82,236.72,080820,,,A*7A
$GPRMC,103745.000,A,3941.4007,N,10548.1922,W,3.87,246.89,080820,,,A*7B
$GPRMC,103746.000,A,3941.4000,N,10548.1940,W,4.33,249.94,080820,,,A*70
$GPRMC,103747.000,A,3941.3993,N,10548.1955,W,3.83,247.60,080820,,,A*78
$GPRMC,103748.000,A,3941.3987,N,10548.1966,W,2.88,254.04,080820,,,A*78
$GPRMC,103749.000,A,3941.3972,N,10548.1981,W,3.12,239.41,080820,,,A*72
$GPRMC,103750.000,A,3941.3958,N,10548.1996,W,3.29,233.95,080820,,,A*7F
$GPRMC,103751.000,A,3941.3947,N,10548.2012,W,4.03,239.85,080820,,,A*72
$GPRMC,103752.000,A,3941.3942,N,10548.2031,W,4.42,245.42,080820,,,A*70
$GPRMC,103753.000,A,3941.3936,N,10548.2048,W,4.45,247.44,080820,,,A*7F
$GPRMC,103754.000,A,3941.3928,N,10548.2063,W,4.07,252.05,080820,,,A*79
$GPRMC,103755.000,A,3941.3924,N,10548.2078,W,4.26,254.10,080820,,,A*7F
$GPRMC,103756.000,A,3941.3920,N,10548.2094,W,4.64,255.19,080820,,,A*74
$GPRMC,103757.000,A,3941.3919,N,10548.2108,W,3.85,261.75,080820,,,A*7E
$GPRMC,103758.000,A,3941.3919,N,10548.2122,W,3.90,267.68,080820,,,A*77
$GPRMC,103759.000,A,3941.3918,N,10548.2139,W,4.40,272.02,080820,,,A*7F
$GPRMC,103800.000,A,3941.3920,N,10548.2155,W,4.35,275.14,080820,,,A*7F
$GPRMC,103801.000,A,3941.3921,N,10548.2172,W,4.55,272.83,080820,,,A*75
$GPRMC,103802.000,A,3941.3920,N,10548.2189,W,4.72,268.28,080820,,,A*7C
$GPRMC,103803.000,A,3941.3914,N,10548.2209,W,4.65,257.06,080820,,,A*77
$GPRMC,103804.000,A,3941.3911,N,10548.2225,W,4.61,256.96,080820,,,A*77
$GPRMC,103805.000,A,3941.3908,N,10548.2239,W,4.59,255.44,080820,,,A*74
$GPRMC,103806.000,A,3941.3905,N,10548.2255,W,4.60,266.64,080820,,,A*78
$GPRMC,103807.000,A,3941.3902,N,10548.2270,W,4.60,257.01,080820,,,A*78
$GPRMC,103808.000,A,3941.3898,N,10548.2282,W,3.62,246.89,080820,,,A*7D
$GPRMC,103809.000,A,3941.3893,N,10548.2293,W,3.38,233.53,080820,,,A*7D
$GPRMC,103810.000,A,3941.3888,N,10548.2304,W,2.92,251.92,080820,,,A*78
$GPRMC,103811.000,A,3941.3885,N,10548.2316,W,3.32,261.92,080820,,,A*7F
$GPRMC,103812.000,A,3941.3882,N,10548.2330,W,4.06,249.47,080820,,,A*7D
$GPRMC,103813.000,A,3941.3876,N,10548.2346,W,4.58,245.14,080820,,,A*77
$GPRMC,103814.000,A,3941.3866,N,10548.2368,W,5.98,241.01,080820,,,A*70
$GPRMC,103815.000,A,3941.3860,N,10548.2398,W,5.79,245.74,080820,,,A*71
$GPRMC,103816.000,A,3941.3858,N,10548.2430,W,5.32,250.64,080820,,,A*76
$GPRMC,103817.000,A,3941.3852,N,10548.2453,W,5.06,247.44,080820,,,A*7B
$GPRMC,103818.000,A,3941.3842,N,10548.2473,W,4.86,240.77,080820,,,A*79
$GPRMC,103819.000,A,3941.3826,N,10548.2493,W,5.13,234.21,080820,,,A*79
$GPRMC,103820.000,A,3941.3810,N,10548.2511,W,5.12,231.94,080820,,,A*77
$GPRMC,103821.000,A,3941.3798,N,10548.2530,W,5.42,235.97,080820,,,A*78
$GPRMC,103822.000,A,3941.3785,N,10548.2548,W,5.88,228.13,080820,,,A*7E
$GPRMC,103823.000,A,3941.3771,N,10548.2566,W,6.14,223.04,080820,,,A*73
$GPRMC,103824.000,A,3941.3758,N,10548.2582,W,5.89,223.66,080820,,,A*76
$GPRMC,103825.000,A,3941.3745,N,10548.2597,W,6.23,219.88,080820,,,A*75
$GPRMC,103826.000,A,3941.3732,N,10548.2609,W,5.32,217.39,080820,,,A*75
$GPRMC,103827.000,A,3941.3722,N,10548.2618,W,3.72,212.51,080820,,,A*7C
$GPRMC,103828.000,A,3941.3715,N,10548.2622,W,2.10,210.56,080820,,,A*7E
$GPRMC,103829.000,A,3941.3709,N,10548.2625,W,1.49,215.05,080820,,,A*79
$GPRMC,103830.000,A,3941.3706,N,10548.2629,W,1.51,230.30,080820,,,A*7A
$GPRMC,103831.000,A,3941.3700,N,10548.2634,W,2.69,219.94,080820,,,A*7C
$GPRMC,103832.000,A,3941.3691,N,10548.2639,W,3.30,204.11,080820,,,A*77
$GPRMC,103833.000,A,3941.3681,N,10548.2643,W,3.51,205.66,080820,,,A*7C
$GPRMC,103834.000,A,3941.3670,N,10548.2647,W,3.57,193.42,080820,,,A*7D
$GPRMC,103835.000,A,3941.3658,N,10548.2649,W,3.54,192.10,080820,,,A*7D
$GPRMC,103836.000,A,3941.3649,N,10548.2651,W,2.50,191.23,080820,,,A*71
$GPRMC,103837.000,A,3941.3641,N,10548.2652,W,2.32,194.36,080820,,,A*7E
$GPRMC,103838.000,A,3941.3632,N,10548.2654,W,2.85,191.57,080820,,,A*7D
$GPRMC,103839.000,A,3941.3622,N,10548.2657,W,3.24,187.58,080820,,,A*7C
$GPRMC,103840.000,A,3941.3610,N,10548.2658,W,3.73,186.04,080820,,,A*76
$GPRMC,103841.000,A,3941.3597,N,10548.2661,W,4.23,190.60,080820,,,A*76
$GPRMC,103842.000,A,3941.3585,N,10548.2667,W,4.65,207.77,080820,,,A*79
$GPRMC,103843.000,A,3941.3572,N,10548.2675,W,4.70,210.15,080820,,,A*75
$GPRMC,103844.000,A,3941.3559,N,10548.2685,W,4.93,210.86,080820,,,A*73
$GPRMC,103845.000,A,3941.3546,N,10548.2696,W,4.94,209.08,080820,,,A*77
$GPRMC,103846.000,A,3941.3534,N,10548.2709,W,4.04,211.43,080820,,,A*79
$GPRMC,103847.000,A,3941.3526,N,10548.2719,W,2.94,220.28,080820,,,A*7A
$GPRMC,103848.000,A,3941.3520,N,10548.2724,W,2.25,232.11,080820,,,A*7E
$GPRMC,103849.000,A,3941.3514,N,10548.2734,W,2.62,232.80,080820,,,A*72
$GPRMC,103850.000,A,3941.3512,N,10548.2743,W,2.04,247.43,080820,,,A*71
$GPRMC,103851.000,A,3941.3509,N,10548.2753,W,2.02,255.71,080820,,,A*7F
$GPRMC,103852.000,A,3941.3505,N,10548.2762,W,1.99,240.43,080820,,,A*76
$GPRMC,103853.000,A,3941.3499,N,10548.2766,W,1.96,214.49,080820,,,A*73
$GPRMC,103854.000,A,3941.3491,N,10548.2771,W,1.06,226.68,080820,,,A*71
$GPRMC,103855.000,A,3941.3486,N,10548.2777,W,1.50,223.43,080820,,,A*7F
$GPRMC,103856.000,A,3941.3481,N,10548.2786,W,1.86,231.05,080820,,,A*7F
$GPRMC,103857.000,A,3941.3476,N,10548.2795,W,2.17,233.05,080820,,,A*7D
$GPRMC,103858.000,A,3941.3470,N,10548.2803,W,2.34,228.85,080820,,,A*77
$GPRMC,103859.000,A,3941.3466,N,10548.2810,W,2.32,229.01,080820,,,A*78
$GPRMC,103900.000,A,3941.3464,N,10548.2814,W,1.86,229.50,080820,,,A*7B
$GPRMC,103901.000,A,3941.3460,N,10548.2819,W,1.85,228.81,080820,,,A*7D
$GPRMC,103902.000,A,3941.3455,N,10548.2823,W,1.87,226.14,080820,,,A*71
$GPRMC,103903.000,A,3941.3450,N,10548.2827,W,1.93,223.67,080820,,,A*75
$GPRMC,103904.000,A,3941.3444,N,10548.2834,W,2.29,226.51,080820,,,A*77
$GPRMC,103905.000,A,3941.3437,N,10548.2842,W,2.68,227.43,080820,,,A*74
$GPRMC,103906.000,A,3941.3429,N,10548.2851,W,3.11,227.17,080820,,,A*74
$GPRMC,103907.000,A,3941.3421,N,10548.2860,W,3.69,223.96,080820,,,A*7D
$GPRMC,103908.000,A,3941.3411,N,10548.2870,W,3.76,222.71,080820,,,A*76
$GPRMC,103909.000,A,3941.3403,N,10548.2881,W,4.04,222.87,080820,,,A*71
$GPRMC,103910.000,A,3941.3395,N,10548.2893,W,4.45,225.93,080820,,,A*75
$GPRMC,103911.000,A,3941.3383,N,10548.2906,W,5.84,215.76,080820,,,A*7A
$GPRMC,103912.000,A,3941.3367,N,10548.2920,W,7.01,212.83,080820,,,A*75
$GPRMC,103913.000,A,3941.3348,N,10548.2935,W,7.38,209.05,080820,,,A*73
$GPRMC,103914.000,A,3941.3330,N,10548.2948,W,6.37,210.06,080820,,,A*74
$GPRMC,103915.000,A,3941.3315,N,10548.2960,W,5.80,212.14,080820,,,A*76
$GPRMC,103916.000,A,3941.3300,N,10548.2971,W,5.80,211.81,080820,,,A*7E
$GPRMC,103917.000,A,3941.3280,N,10548.2985,W,5.77,208.25,080820,,,A*73
$GPRMC,103918.000,A,3941.3262,N,10548.2995,W,6.01,203.47,080820,,,A*7C
$GPRMC,103919.000,A,3941.3244,N,10548.3003,W,6.73,204.28,080820,,,A*75
$GPRMC,103920.000,A,3941.3226,N,10548.3013,W,7.08,203.83,080820,,,A*71
$GPRMC,103921.000,A,3941.3205,N,10548.3023,W,7.40,199.54,080820,,,A*74
$GPRMC,103922.000,A,3941.3186,N,10548.3030,W,7.09,195.47,080820,,,A*7E
$GPRMC,103923.000,A,3941.3167,N,10548.3038,W,6.77,195.76,080820,,,A*72
$GPRMC,103924.000,A,3941.3150,N,10548.3045,W,6.17,194.26,080820,,,A*79
$GPRMC,103925.000,A,3941.3134,N,10548.3050,W,6.17,191.12,080820,,,A*7C
$GPRMC,103926.000,A,3941.3118,N,10548.3058,W,6.18,200.78,080820,,,A*71
$GPRMC,103927.000,A,3941.3102,N,10548.3066,W,6.14,198.22,080820,,,A*77
$GPRMC,103928.000,A,3941.3088,N,10548.3074,W,5.12,204.01,080820,,,A*7A
$GPRMC,103929.000,A,3941.3076,N,10548.3081,W,4.66,200.41,080820,,,A*72
$GPRMC,103930.000,A,3941.3064,N,10548.3088,W,4.65,200.87,080820,,,A*79
$GPRMC,103931.000,A,3941.3050,N,10548.3092,W,5.03,189.97,080820,,,A*76
$GPRMC,103932.000,A,3941.3036,N,10548.3094,W,4.98,178.62,080820,,,A*74
$GPRMC,103933.000,A,3941.3022,N,10548.3092,W,5.15,170.31,080820,,,A*7C
$GPRMC,103934.000,A,3941.3009,N,10548.3089,W,4.86,159.65,080820,,,A*79
$GPRMC,103935.000,A,3941.2997,N,10548.3085,W,5.41,148.31,080820,,,A*70
$GPRMC,103936.000,A,3941.2984,N,10548.3074,W,5.73,139.38,080820,,,A*71
$GPRMC,103937.000,A,3941.2973,N,10548.3059,W,6.22,129.74,080820,,,A*79
$GPRMC,103938.000,A,3941.2962,N,10548.3040,W,6.88,123.52,080820,,,A*70
$GPRMC,103939.000,A,3941.2951,N,10548.3019,W,7.08,123.94,080820,,,A*7E
$GPRMC,103940.000,A,3941.2940,N,10548.2998,W,6.92,122.04,080820,,,A*7B
$GPRMC,103941.000,A,3941.2931,N,10548.2976,W,7.23,114.34,080820,,,A*71
$GPRMC,103942.000,A,3941.2923,N,10548.2952,W,7.67,109.26,080820,,,A*78
$GPRMC,103943.000,A,3941.2915,N,10548.2928,W,7.16,110.81,080820,,,A*72
$GPRMC,103944.000,A,3941.2908,N,10548.2907,W,6.29,107.75,080820,,,A*74
$GPRMC,103945.000,A,3941.2907,N,10548.2887,W,5.76,97.65,080820,,,A*43
$GPRMC,103946.000,A,3941.2910,N,10548.2866,W,5.46,89.74,080820,,,A*45
$GPRMC,103947.000,A,3941.2912,N,10548.2848,W,4.80,87.70,080820,,,A*4B
$GPRMC,103948.000,A,3941.2912,N,10548.2832,W,4.26,91.17,080820,,,A*43
$GPRMC,103949.000,A,3941.2915,N,10548.2815,W,3.00,94.21,080820,,,A*43
$GPRMC,103950.000,A,3941.2918,N,10548.2800,W,2.30,95.80,080820,,,A*4A
$GPRMC,103951.000,A,3941.2917,N,10548.2788,W,2.64,109.56,080820,,,A*75
$GPRMC,103952.000,A,3941.2914,N,10548.2778,W,2.64,106.15,080820,,,A*72
$GPRMC,103953.000,A,3941.2911,N,10548.2769,W,3.07,116.19,080820,,,A*7F
$GPRMC,103954.000,A,3941.2907,N,10548.2755,W,3.09,115.72,080820,,,A*70
$GPRMC,103955.000,A,3941.2907,N,10548.2743,W,3.09,90.32,080820,,,A*4E
$GPRMC,103956.000,A,3941.2903,N,10548.2732,W,3.25,86.47,080820,,,A*44
$GPRMC,103957.000,A,3941.2901,N,10548.2722,W,2.82,86.17,080820,,,A*4F
$GPRMC,103958.000,A,3941.2896,N,10548.2707,W,3.99,97.34,080820,,,A*42
$GPRMC,103959.000,A,3941.2891,N,10548.2690,W,4.84,113.08,080820,,,A*72
$GPRMC,104000.000,A,3941.2880,N,10548.2674,W,5.61,126.35,080820,,,A*78
$GPRMC,104001.000,A,3941.2869,N,10548.2659,W,5.28,135.77,080820,,,A*78
$GPRMC,104002.000,A,3941.2867,N,10548.2642,W,5.35,147.22,080820,,,A*76
$GPRMC,104003.000,A,3941.2856,N,10548.2632,W,4.99,159.53,080820,,,A*7C
$GPRMC,104004.000,A,3941.2842,N,10548.2627,W,4.11,177.25,080820,,,A*77
$GPRMC,104005.000,A,3941.2831,N,10548.2627,W,3.93,188.47,080820,,,A*7B
$GPRMC,104006.000,A,3941.2820,N,10548.2631,W,4.12,203.81,080820,,,A*7B
$GPRMC,104007.000,A,3941.2810,N,10548.2639,W,4.87,216.43,080820,,,A*77
$GPRMC,104008.000,A,3941.2796,N,10548.2652,W,6.18,217.28,080820,,,A*7C
$GPRMC,104009.000,A,3941.2781,N,10548.2665,W,6.65,214.57,080820,,,A*7E
$GPRMC,104010.000,A,3941.2764,N,10548.2677,W,6.62,212.51,080820,,,A*79
$GPRMC,104011.000,A,3941.2748,N,10548.2690,W,6.95,216.85,080820,,,A*7A
$GPRMC,104012.000,A,3941.2731,N,10548.2706,W,7.53,218.36,080820,,,A*74
$GPRMC,104013.000,A,3941.2714,N,10548.2720,W,6.53,213.38,080820,,,A*72
$GPRMC,104014.000,A,3941.2701,N,10548.2733,W,5.74,221.19,080820,,,A*77
$GPRMC,104015.000,A,3941.2689,N,10548.2747,W,6.04,224.28,080820,,,A*77
$GPRMC,104016.000,A,3941.2677,N,10548.2761,W,5.66,221.84,080820,,,A*75
$GPRMC,104017.000,A,3941.2665,N,10548.2773,W,5.46,220.02,080820,,,A*79
$GPRMC,104018.000,A,3941.2654,N,10548.2785,W,5.03,222.27,080820,,,A*79
$GPRMC,104019.000,A,3941.2644,N,10548.2796,W,3.87,223.92,080820,,,A*7E
$GPRMC,104020.000,A,3941.2635,N,10548.2805,W,3.56,223.43,080820,,,A*77
$GPRMC,104021.000,A,3941.2624,N,10548.2812,W,3.54,219.82,080820,,,A*76
$GPRMC,104022.000,A,3941.2615,N,10548.2817,W,3.12,226.44,080820,,,A*76
$GPRMC,104023.000,A,3941.2606,N,10548.2825,W,3.31,224.91,080820,,,A*7F
$GPRMC,104024.000,A,3941.2598,N,10548.2831,W,2.96,224.79,080820,,,A*73
$GPRMC,104025.000,A,3941.2590,N,10548.2835,W,2.98,222.60,080820,,,A*7E
$GPRMC,104026.000,A,3941.2582,N,10548.2842,W,3.21,224.74,080820,,,A*7E
$GPRMC,104027.000,A,3941.2572,N,10548.2846,W,3.59,215.79,080820,,,A*74
$GPRMC,104028.000,A,3941.2562,N,10548.2851,W,3.55,218.08,080820,,,A*7B
$GPRMC,104029.000,A,3941.2555,N,10548.2858,W,3.11,218.90,080820,,,A*76
$GPRMC,104030.000,A,3941.2549,N,10548.2865,W,3.16,224.55,080820,,,A*7C
$GPRMC,104031.000,A,3941.2541,N,10548.2872,W,3.10,223.91,080820,,,A*7A
$GPRMC,104032.000,A,3941.2534,N,10548.2879,W,3.06,225.01,080820,,,A*78
$GPRMC,104033.000,A,3941.2529,N,10548.2887,W,2.89,233.77,080820,,,A*74
$GPRMC,104034.000,A,3941.2524,N,10548.2894,W,2.41,229.10,080820,,,A*72
$GPRMC,104035.000,A,3941.2519,N,10548.2900,W,2.63,224.01,080820,,,A*7C
$GPRMC,104036.000,A,3941.2511,N,10548.2906,W,3.37,217.27,080820,,,A*75
$GPRMC,104037.000,A,3941.2503,N,10548.2913,W,4.02,215.35,080820,,,A*73
$GPRMC,104038.000,A,3941.2494,N,10548.2922,W,4.05,215.75,080820,,,A*72
$GPRMC,104039.000,A,3941.2485,N,10548.2929,W,3.55,210.96,080820,,,A*72
$GPRMC,104040.000,A,3941.2476,N,10548.2935,W,3.50,212.72,080820,,,A*70
$GPRMC,104041.000,A,3941.2467,N,10548.2941,W,3.54,211.55,080820,,,A*70
$GPRMC,104042.000,A,3941.2459,N,10548.2948,W,3.79,217.12,080820,,,A*7D
$GPRMC,104043.000,A,3941.2450,N,10548.2956,W,3.83,221.12,080820,,,A*7A
$GPRMC,104044.000,A,3941.2441,N,10548.2963,W,3.88,222.99,080820,,,A*70
$GPRMC,104045.000,A,3941.2432,N,10548.2973,W,4.08,223.76,080820,,,A*7B
$GPRMC,104046.000,A,3941.2423,N,10548.2984,W,4.49,222.27,080820,,,A*70
$GPRMC,104047.000,A,3941.2413,N,10548.2996,W,4.91,221.60,080820,,,A*74
$GPRMC,104048.000,A,3941.2403,N,10548.3008,W,4.86,221.72,080820,,,A*70
$GPRMC,104049.000,A,3941.2393,N,10548.3017,W,4.34,213.18,080820,,,A*75
$GPRMC,104050.000,A,3941.2384,N,10548.3020,W,3.62,213.34,080820,,,A*75
$GPRMC,104051.000,A,3941.2377,N,10548.3029,W,3.14,207.11,080820,,,A*72
$GPRMC,104052.000,A,3941.2369,N,10548.3034,W,3.63,202.83,080820,,,A*7C
$GPRMC,104053.000,A,3941.2358,N,10548.3038,W,3.80,201.27,080820,,,A*73
$GPRMC,104054.000,A,3941.2347,N,10548.3041,W,3.73,201.06,080820,,,A*7B
$GPRMC,104055.000,A,3941.2337,N,10548.3047,W,3.71,209.58,080820,,,A*7A
$GPRMC,104056.000,A,3941.2325,N,10548.3053,W,4.49,210.69,080820,,,A*79
$GPRMC,104057.000,A,3941.2312,N,10548.3060,W,5.27,207.86,080820,,,A*72
$GPRMC,104058.000,A,3941.2298,N,10548.3068,W,5.31,213.51,080820,,,A*7E
$GPRMC,104059.000,A,3941.2286,N,10548.3077,W,4.16,210.36,080820,,,A*78
$GPRMC,104100.000,A,3941.2277,N,10548.3085,W,3.30,214.51,080820,,,A*70
$GPRMC,104101.000,A,3941.2269,N,10548.3091,W,2.50,219.65,080820,,,A*76
$GPRMC,104102.000,A,3941.2262,N,10548.3097,W,2.11,217.97,080820,,,A*7E
$GPRMC,104103.000,A,3941.2255,N,10548.3102,W,2.18,213.25,080820,,,A*72
$GPRMC,104104.000,A,3941.2247,N,10548.3108,W,2.65,215.50,080820,,,A*72
$GPRMC,104105.000,A,3941.2240,N,10548.3114,W,2.45,219.41,080820,,,A*77
$GPRMC,104106.000,A,3941.2234,N,10548.3119,W,2.45,211.63,080820,,,A*72
$GPRMC,104107.000,A,3941.2227,N,10548.3123,W,3.00,213.00,080820,,,A*7F
$GPRMC,104108.000,A,3941.2217,N,10548.3130,W,4.09,211.59,080820,,,A*71
$GPRMC,104109.000,A,3941.2206,N,10548.3139,W,5.07,210.58,080820,,,A*76
$GPRMC,104110.000,A,3941.2193,N,10548.3149,W,5.92,208.16,080820,,,A*79
$GPRMC,104111.000,A,3941.2179,N,10548.3159,W,5.89,208.67,080820,,,A*71
$GPRMC,104112.000,A,3941.2166,N,10548.3170,W,5.91,208.84,080820,,,A*73
$GPRMC,104113.000,A,3941.2152,N,10548.3181,W,6.12,208.28,080820,,,A*75
$GPRMC,104114.000,A,3941.2137,N,10548.3192,W,6.60,206.33,080820,,,A*72
$GPRMC,104115.000,A,3941.2120,N,10548.3203,W,6.92,206.40,080820,,,A*77
$GPRMC,104116.000,A,3941.2103,N,10548.3214,W,7.38,206.35,080820,,,A*70
$GPRMC,104117.000,A,3941.2085,N,10548.3226,W,7.34,207.90,080820,,,A*7D
$GPRMC,104118.000,A,3941.2068,N,10548.3235,W,6.67,196.62,080820,,,A*72
$GPRMC,104119.000,A,3941.2052,N,10548.3242,W,5.92,196.04,080820,,,A*73
$GPRMC,104120.000,A,3941.2036,N,10548.3247,W,5.56,194.13,080820,,,A*72
$GPRMC,104121.000,A,3941.2023,N,10548.3249,W,5.15,195.59,080820,,,A*71
$GPRMC,104122.000,A,3941.2008,N,10548.3253,W,5.62,196.91,080820,,,A*77
$GPRMC,104123.000,A,3941.1993,N,10548.3258,W,5.08,197.30,080820,,,A*73
$GPRMC,104124.000,A,3941.1979,N,10548.3264,W,5.36,195.16,080820,,,A*74
$GPRMC,104125.000,A,3941.1966,N,10548.3270,W,5.19,197.72,080820,,,A*73
$GPRMC,104126.000,A,3941.1955,N,10548.3275,W,4.69,200.01,080820,,,A*7A
$GPRMC,104127.000,A,3941.1942,N,10548.3277,W,4.90,198.29,080820,,,A*71
$GPRMC,104128.000,A,3941.1929,N,10548.3282,W,5.72,197.74,080820,,,A*73
$GPRMC,104129.000,A,3941.1913,N,10548.3286,W,5.66,191.47,080820,,,A*7C
$GPRMC,104130.000,A,3941.1897,N,10548.3290,W,5.71,190.54,080820,,,A*7B
$GPRMC,104131.000,A,3941.1880,N,10548.3295,W,6.17,194.68,080820,,,A*71
$GPRMC,104132.000,A,3941.1862,N,10548.3302,W,6.40,199.62,080820,,,A*74
$GPRMC,104133.000,A,3941.1846,N,10548.3310,W,6.35,196.79,080820,,,A*77
$GPRMC,104134.000,A,3941.1831,N,10548.3316,W,5.25,195.10,080820,,,A*78
$GPRMC,104135.000,A,3941.1818,N,10548.3322,W,4.91,197.82,080820,,,A*72
$GPRMC,104136.000,A,3941.1804,N,10548.3326,W,4.73,195.64,080820,,,A*7E
$GPRMC,104137.000,A,3941.1793,N,10548.3331,W,4.06,193.15,080820,,,A*7A
$GPRMC,104138.000,A,3941.1782,N,10548.3333,W,3.88,193.33,080820,,,A*72
$GPRMC,104139.000,A,3941.1765,N,10548.3339,W,4.95,196.73,080820,,,A*7A
$GPRMC,104140.000,A,3941.1752,N,10548.3344,W,4.77,200.20,080820,,,A*7C
$GPRMC,104141.000,A,3941.1738,N,10548.3352,W,5.61,207.37,080820,,,A*71
$GPRMC,104142.000,A,3941.1720,N,10548.3360,W,6.62,204.55,080820,,,A*7D
$GPRMC,104143.000,A,3941.1703,N,10548.3369,W,7.00,199.87,080820,,,A*79
$GPRMC,104144.000,A,3941.1689,N,10548.3375,W,6.93,197.89,080820,,,A*7B
$GPRMC,104145.000,A,3941.1669,N,10548.3381,W,8.12,195.69,080820,,,A*74
$GPRMC,104146.000,A,3941.1646,N,10548.3388,W,7.79,197.59,080820,,,A*70
$GPRMC,104147.000,A,3941.1625,N,10548.3397,W,6.71,203.09,080820,,,A*78
$GPRMC,104148.000,A,3941.1607,N,10548.3408,W,6.65,207.90,080820,,,A*77
$GPRMC,104149.000,A,3941.1590,N,10548.3420,W,5.78,207.97,080820,,,A*79
$GPRMC,104150.000,A,3941.1574,N,10548.3430,W,4.74,213.39,080820,,,A*76
$GPRMC,104151.000,A,3941.1559,N,10548.3437,W,4.50,210.59,080820,,,A*7C
$GPRMC,104152.000,A,3941.1538,N,10548.3442,W,5.16,207.07,080820,,,A*74
$GPRMC,104153.000,A,3941.1520,N,10548.3452,W,6.36,205.41,080820,,,A*7C
$GPRMC,104154.000,A,3941.1500,N,10548.3462,W,6.53,208.80,080820,,,A*79
$GPRMC,104155.000,A,3941.1480,N,10548.3473,W,6.95,204.39,080820,,,A*75
$GPRMC,104156.000,A,3941.1460,N,10548.3486,W,7.80,209.89,080820,,,A*71
$GPRMC,104157.000,A,3941.1436,N,10548.3503,W,7.86,207.03,080820,,,A*75
$GPRMC,104158.000,A,3941.1417,N,10548.3518,W,6.29,210.02,080820,,,A*70
$GPRMC,104159.000,A,3941.1403,N,10548.3530,W,4.65,209.23,080820,,,A*7F
$GPRMC,104200.000,A,3941.1390,N,10548.3538,W,4.13,210.68,080820,,,A*73
$GPRMC,104201.000,A,3941.1381,N,10548.3546,W,3.20,214.20,080820,,,A*74
$GPRMC,104202.000,A,3941.1372,N,10548.3554,W,3.57,216.44,080820,,,A*78
$GPRMC,104203.000,A,3941.1362,N,10548.3560,W,3.77,207.99,080820,,,A*7D
$GPRMC,104204.000,A,3941.1352,N,10548.3566,W,3.58,213.14,080820,,,A*72
$GPRMC,104205.000,A,3941.1342,N,10548.3573,W,3.97,208.52,080820,,,A*7D
$GPRMC,104206.000,A,3941.1330,N,10548.3580,W,4.51,206.50,080820,,,A*76
$GPRMC,104207.000,A,3941.1317,N,10548.3587,W,5.25,204.62,080820,,,A*74
$GPRMC,104208.000,A,3941.1303,N,10548.3596,W,5.08,208.32,080820,,,A*78
$GPRMC,104209.000,A,3941.1290,N,10548.3606,W,4.89,211.67,080820,,,A*78
$GPRMC,104210.000,A,3941.1276,N,10548.3613,W,5.13,202.46,080820,,,A*7F
$GPRMC,104211.000,A,3941.1263,N,10548.3621,W,4.58,204.58,080820,,,A*7C
$GPRMC,104212.000,A,3941.1252,N,10548.3629,W,4.64,212.67,080820,,,A*71
$GPRMC,104213.000,A,3941.1239,N,10548.3636,W,4.81,199.19,080820,,,A*71
$GPRMC,104214.000,A,3941.1224,N,10548.3641,W,5.44,192.58,080820,,,A*7C
$GPRMC,104215.000,A,3941.1212,N,10548.3647,W,4.99,199.72,080820,,,A*7C
$GPRMC,104216.000,A,3941.1202,N,10548.3653,W,3.98,201.22,080820,,,A*7A
$GPRMC,104217.000,A,3941.1192,N,10548.3659,W,4.16,196.02,080820,,,A*75
$GPRMC,104218.000,A,3941.1181,N,10548.3662,W,4.13,197.18,080820,,,A*7F
$GPRMC,104219.000,A,3941.1168,N,10548.3664,W,4.40,187.73,080820,,,A*75
$GPRMC,104220.000,A,3941.1154,N,10548.3665,W,4.74,182.85,080820,,,A*7A
$GPRMC,104221.000,A,3941.1140,N,10548.3667,W,4.73,187.89,080820,,,A*72
$GPRMC,104222.000,A,3941.1122,N,10548.3669,W,5.46,182.85,080820,,,A*75
$GPRMC,104223.000,A,3941.1100,N,10548.3665,W,6.08,176.94,080820,,,A*7A
$GPRMC,104224.000,A,3941.1081,N,10548.3667,W,6.06,178.57,080820,,,A*78
$GPRMC,104226.000,A,3941.1045,N,10548.3665,W,5.40,178.81,080820,,,A*7A
$GPRMC,104227.000,A,3941.1030,N,10548.3664,W,4.81,183.31,080820,,,A*7B
$GPRMC,104228.000,A,3941.1016,N,10548.3668,W,4.81,186.90,080820,,,A*72
$GPRMC,104229.000,A,3941.1001,N,10548.3673,W,4.84,189.77,080820,,,A*7C
$GPRMC,104230.000,A,3941.0985,N,10548.3677,W,5.23,188.07,080820,,,A*7E
$GPRMC,104231.000,A,3941.0967,N,10548.3679,W,5.42,184.82,080820,,,A*7B
$GPRMC,104232.000,A,3941.0950,N,10548.3683,W,5.37,189.24,080820,,,A*7A
$GPRMC,104233.000,A,3941.0935,N,10548.3688,W,4.96,195.25,080820,,,A*75
$GPRMC,104234.000,A,3941.0919,N,10548.3692,W,4.95,188.97,080820,,,A*71
$GPRMC,104235.000,A,3941.0904,N,10548.3695,W,4.56,186.14,080820,,,A*71
$GPRMC,104235.000,A,3941.0904,N,10548.3695,W,4.56,186.14,080820,,,A*71
$GPRMC,104237.000,A,3941.0876,N,10548.3698,W,4.96,185.94,080820,,,A*7D
$GPRMC,104237.000,A,3941.0876,N,10548.3698,W,4.96,185.94,080820,,,A*7D
$GPRMC,104238.000,A,3941.0859,N,10548.3696,W,5.54,172.89,080820,,,A*7A
$GPRMC,104240.000,A,3941.0830,N,10548.3698,W,4.11,178.27,080820,,,A*7A
$GPRMC,104241.000,A,3941.0817,N,10548.3698,W,3.89,171.41,080820,,,A*71
$GPRMC,104241.000,A,3941.0817,N,10548.3698,W,3.89,171.41,080820,,,A*71
$GPRMC,104242.000,A,3941.0806,N,10548.3697,W,3.35,173.58,080820,,,A*70
$GPRMC,104244.000,A,3941.0783,N,10548.3695,W,3.28,179.40,080820,,,A*79
$GPRMC,104245.000,A,3941.0768,N,10548.3702,W,4.06,194.24,080820,,,A*78
$GPRMC,104246.000,A,3941.0754,N,10548.3705,W,3.89,194.64,080820,,,A*77
$GPRMC,104247.000,A,3941.0739,N,10548.3712,W,4.25,200.38,080820,,,A*7D
$GPRMC,104248.000,A,3941.0722,N,10548.3718,W,4.93,202.80,080820,,,A*7E
$GPRMC,104249.000,A,3941.0706,N,10548.3724,W,5.12,202.81,080820,,,A*7F
$GPRMC,104250.000,A,3941.0688,N,10548.3730,W,5.55,199.48,080820,,,A*72
$GPRMC,104251.000,A,3941.0671,N,10548.3737,W,5.92,200.06,080820,,,A*70
$GPRMC,104252.000,A,3941.0654,N,10548.3743,W,5.50,192.53,080820,,,A*71
$GPRMC,104253.000,A,3941.0639,N,10548.3746,W,5.29,192.81,080820,,,A*7F
$GPRMC,104254.000,A,3941.0620,N,10548.3745,W,5.09,192.32,080820,,,A*79
$GPRMC,104255.000,A,3941.0603,N,10548.3753,W,4.81,198.19,080820,,,A*7C
$GPRMC,104256.000,A,3941.0588,N,10548.3758,W,4.50,196.61,080820,,,A*79
$GPRMC,104257.000,A,3941.0571,N,10548.3765,W,4.83,198.07,080820,,,A*70
$GPRMC,104258.000,A,3941.0556,N,10548.3772,W,5.26,196.07,080820,,,A*7C
$GPRMC,104259.000,A,3941.0541,N,10548.3779,W,5.51,197.04,080820,,,A*72
$GPRMC,104300.000,A,3941.0526,N,10548.3784,W,4.77,196.01,080820,,,A*7D
$GPRMC,104301.000,A,3941.0514,N,10548.3787,W,4.33,188.90,080820,,,A*79
$GPRMC,104302.000,A,3941.0501,N,10548.3789,W,4.60,187.71,080820,,,A*76
$GPRMC,104303.000,A,3941.0481,N,10548.3795,W,6.61,195.11,080820,,,A*75
$GPRMC,104304.000,A,3941.0461,N,10548.3799,W,6.89,193.59,080820,,,A*7C
$GPRMC,104305.000,A,3941.0435,N,10548.3806,W,8.67,194.52,080820,,,A*77
$GPRMC,104306.000,A,3941.0413,N,10548.3812,W,7.52,196.53,080820,,,A*7F
$GPRMC,104307.000,A,3941.0387,N,10548.3819,W,8.22,193.91,080820,,,A*7C
$GPRMC,104308.000,A,3941.0364,N,10548.3825,W,7.84,191.18,080820,,,A*71
$GPRMC,104309.000,A,3941.0342,N,10548.3831,W,7.82,193.87,080820,,,A*73
$GPRMC,104310.000,A,3941.0321,N,10548.3838,W,7.37,197.32,080820,,,A*73
$GPRMC,104311.000,A,3941.0299,N,10548.3845,W,7.54,196.25,080820,,,A*78
$GPRMC,104312.000,A,3941.0278,N,10548.3854,W,7.36,200.12,080820,,,A*78
$GPRMC,104313.000,A,3941.0256,N,10548.3862,W,6.95,205.43,080820,,,A*79
$GPRMC,104314.000,A,3941.0236,N,10548.3874,W,7.43,209.16,080820,,,A*79
$GPRMC,104315.000,A,3941.0214,N,10548.3888,W,7.79,208.55,080820,,,A*74
$GPRMC,104316.000,A,3941.0193,N,10548.3901,W,7.43,209.03,080820,,,A*70
$GPRMC,104317.000,A,3941.0175,N,10548.3910,W,6.33,203.78,080820,,,A*79
$GPRMC,104318.000,A,3941.0158,N,10548.3918,W,5.75,196.76,080820,,,A*71
$GPRMC,104319.000,A,3941.0144,N,10548.3923,W,4.72,195.80,080820,,,A*79
$GPRMC,104320.000,A,3941.0131,N,10548.3927,W,4.33,186.38,080820,,,A*71
$GPRMC,104321.000,A,3941.0121,N,10548.3927,W,3.59,180.02,080820,,,A*75
$GPRMC,104322.000,A,3941.0109,N,10548.3927,W,4.29,177.25,080820,,,A*71
$GPRMC,104323.000,A,3941.0096,N,10548.3927,W,4.91,179.84,080820,,,A*71
$GPRMC,104324.000,A,3941.0079,N,10548.3926,W,5.70,177.16,080820,,,A*7D
$GPRMC,104325.000,A,3941.0058,N,10548.3928,W,6.29,179.77,080820,,,A*77
$GPRMC,104326.000,A,3941.0038,N,10548.3928,W,5.76,175.27,080820,,,A*72
$GPRMC,104327.000,A,3941.0018,N,10548.3924,W,5.74,174.71,080820,,,A*7D
$GPRMC,104328.000,A,3941.0000,N,10548.3924,W,5.75,182.31,080820,,,A*77
$GPRMC,104329.000,A,3940.9984,N,10548.3922,W,4.72,180.63,080820,,,A*7E
$GPRMC,104330.000,A,3940.9967,N,10548.3919,W,5.21,172.80,080820,,,A*74
$GPRMC,104331.000,A,3940.9950,N,10548.3917,W,4.63,178.24,080820,,,A*7C
$GPRMC,104332.000,A,3940.9934,N,10548.3915,W,4.88,174.74,080820,,,A*73
$GPRMC,104333.000,A,3940.9917,N,10548.3916,W,4.95,184.54,080820,,,A*71
$GPRMC,104334.000,A,3940.9902,N,10548.3917,W,4.70,186.61,080820,,,A*7C
$GPRMC,104335.000,A,3940.9888,N,10548.3919,W,5.15,184.27,080820,,,A*72
$GPRMC,104336.000,A,3940.9872,N,10548.3918,W,5.22,177.81,080820,,,A*71
$GPRMC,104337.000,A,3940.9858,N,10548.3916,W,4.94,171.66,080820,,,A*75
$GPRMC,104338.000,A,3940.9844,N,10548.3914,W,4.96,170.59,080820,,,A*7A
$GPRMC,104339.000,A,3940.9823,N,10548.3911,W,6.45,174.01,080820,,,A*7A
$GPRMC,104340.000,A,3940.9803,N,10548.3907,W,6.51,168.01,080820,,,A*79
$GPRMC,104341.000,A,3940.9783,N,10548.3903,W,6.49,167.36,080820,,,A*79
$GPRMC,104342.000,A,3940.9765,N,10548.3899,W,6.14,169.52,080820,,,A*74
$GPRMC,104343.000,A,3940.9747,N,10548.3897,W,5.90,176.05,080820,,,A*78
$GPRMC,104344.000,A,3940.9726,N,10548.3899,W,6.76,182.78,080820,,,A*7C
$GPRMC,104345.000,A,3940.9702,N,10548.3905,W,7.81,189.22,080820,,,A*72
$GPRMC,104346.000,A,3940.9678,N,10548.3910,W,7.74,189.50,080820,,,A*76
$GPRMC,104347.000,A,3940.9655,N,10548.3914,W,8.25,187.38,080820,,,A*77
